name,category_code,total_money_raised,country_code,city,address,zip_code,latitude,longitude
Digg,news,$45M,USA,San Francisco,135 Mississippi St,94107,37.764726,-122.394523
Joost,games_video,$45M,USA,New York,100 5th Ave Fl 6,10011-6903,40.7464969,-74.0094471
SpinVox,messaging,$106M,GBR,Buckinghamshire,"Wethered House, Pound Lane",SL7 2AF,,
AddThis,advertising,$73M,USA,Vienna,1595 Spring Hill Road,22182,38.926172,-77.245195
Mahalo,web,$21M,USA,Culver City,3525 Eastham Dr.,90232,34.017606,-118.487267
Thoof,web,$1M,USA,Austin,,,30.268735,-97.745209
Mercora,web,$5M,USA,Sunnyvale,440 N. Wolfe Road,94085,37.384239,-122.012475
LifeLock,security,$178M,USA,Tempe,"60 E. Rio Salado Pkwy, Suite 400",85281,33.429859,-111.938739
Jangl SMS,web,$9M,USA,Pleasanton,6601 Owens Dr # 240,94588,37.697805,-121.907768
Prosper,finance,$120M,USA,San Francisco,101 2nd Street,94105,37.78976,-122.402524
Google,search,$555M,USA,Mountain View,1600 Amphitheatre Parkway,,37.421972,-122.084143
Jajah,mobile,$33M,USA,Mountain View,2513 Charleston Road,94043,37.4233896,-122.0899512
blogTV,games_video,$3M,ISR,Ramat Gan,30 Ben Gurion St.,52573,31.046051,34.851612
AdaptiveBlue,games_video,$24M,USA,NYC,131 Varick St,10013,40.801358,-74.3372
Pando Networks,games_video,$11M,USA,New York,520 Broadway,10012,40.722655,-73.99873
GrandCentral,mobile,$4M,USA,Fremont,"48389 Fremont Blvd., Suite #110",94538,37.465645,-121.932202
Topix,web,$15M,USA,Palo Alto,,94301,37.44296,-122.151198
Revision3,games_video,$9M,USA,San Francisco,2415 3rd St,94107,37.757758,-122.388243
Spock,search,$7M,USA,SCHUYLER LAKE,P.O. BOX 150,13457,37.488336,-122.217964
SellABand,games_video,$5M,DEU,46395 Bocholt,Harderhook 22,,51.808933,6.553452
Funny Or Die,games_video,$18M,USA,San Mateo,167 2nd Ave,94401,37.421621,-122.137444
MeeVee,games_video,$25M,USA,Burlingame,"500 Airport Blvd., Suite 400",94010,37.590339,-122.341715
Zlio,ecommerce,$4M,FRA,Paris,55 rue Servan,75011,48.862825,2.381836
Yelp,search,$90M,USA,San Francisco,706 Mission Street,94103,37.786183,-122.402195
Wakoopa,web,$1M,NLD,Amsterdam,"Damrak 70, 254",1012LM,52.3745228,4.8948623
SideStep,web,$32M,USA,Santa Clara,2980 Bowers Ave.,95051,37.374998,-121.977853
KickApps,enterprise,$32M,USA,New York,26 W 17th Street,10011,40.7516611,-73.9843328
RockYou,games_video,$136M,USA,Redwood City,585 Broadway,94063,37.484619,-122.206893
Netvibes,web,$16M,FRA,Paris,"114, rue Cardinet",75017,48.870806,2.34668
Swivel,search,$2M,USA,San Francisco,199 Fremont St.,94105,37.789268,-122.395184
Slide,public_relations,$78M,USA,San Francisco,301 Brannan Street,94107,37.781427,-122.392144
Bebo,web,$15M,USA,San Francisco,425 Bush Street,94108,37.782103,-122.401116
PlaceBlogger,web,$5M,USA,,,,37.09024,-95.712891
WeFi,mobile,$10M,USA,Fairfax,12587 Fair Lakes Circle,22033,37.09024,-95.712891
FeedBurner,web,$8M,USA,Chicago,20 W Kinzie,60610,41.889474,-87.628912
TheFind,ecommerce,$26M,USA,Mountain View,310 Villa Street,94041,37.391502,-122.073463
Zazzle,ecommerce,$46M,USA,Redwood City,1800 Seaport,94063,37.5108541,-122.2013557
Dogster,web,$1M,USA,San Francisco,"555 De Haro Street, #350",,37.762681,-122.400909
Sway,advertising,$2M,USA,Middleton,8313 Greenway Blvd Suite 100,53562,43.090756,-89.522805
Meebo,web,$70M,USA,Mountain View,215 Castro Street,94041,37.393679,-122.079017
Eventbrite,web,$140M,USA,San Francisco,651 Brannan,94107,37.779507,-122.39071
LinkedIn,social,$200M,USA,Mountain View,2029 Stierlin Ct,94043,37.423258,-122.073635
Terabitz,web,$10M,USA,Palo Alto,5 Palo Alto Sq Ste 220,94306-2123,37.437328,-122.159928
Box,network_hosting,$409M,USA,Los Altos,4440 El Camino Real,94022,37.425801,-122.143701
Carbonite,network_hosting,$66M,USA,Boston,,02116,42.350571,-71.076869
Conduit,advertising,$110M,USA,Foster City,950 Tower Lane,94404,37.561877,-122.325248
Kaboodle,ecommerce,$5M,USA,Sunnyvale,640 W. California Ave.,94041,37.382162,-122.036301
Seesmic,web,$16M,USA,San Francisco,1550 Bryant Street,94103,37.775196,-122.419204
Hotelicopter,web,$5M,USA,Charlottesville,103 W. Main Street,22902,38.030823,-78.48158
oDesk,web,$44M,USA,Redwood City,901 Marshall Street,94063,37.479952,-122.178557
Scripps Networks Interactive,web,$10M,USA,Knoxville,Scripps Networks,37950,37.09024,-95.712891
Piczo,network_hosting,$11M,USA,San Francisco,150 California Street,94111,37.793703,-122.398479
PhotoBox,ecommerce,$5M,GBR,London,Bridge House,W2 1LA,,
Bazaarvoice,software,$131M,USA,Austin,3900 N Capital of Texas Hwy,78746,30.407545,-97.717667
hi5,games_video,$52M,USA,San Francisco,55 Second Street,94105,37.788668,-122.400558
Indeed,web,$5M,USA,Stamford,177 Broad St. 6th Floor,06901,41.038155,-73.558082
Going,web,$5M,USA,Boston,8 Winter St.,02108,42.355672,-71.060864
Curse,games_video,$12M,USA,San Francisco,60 Broadway,94111,37.787092,-122.399972
PeerMe,games_video,$5M,USA,Mountain View,2115 Landings Drive,94043,37.419819,-122.090188
CollegeWikis,web,$2M,USA,,,,37.09024,-95.712891
Vuze,games_video,$34M,USA,San Mateo,4 W. 4th Ave,94402,37.4858654,-122.2262606
NowPublic,web,$12M,CAN,Vancouver,576 Seymour Street,,49.283376,-123.103986
Hotswap,ecommerce,$1M,USA,Berkeley,,,37.872222,-122.268403
Lotame,advertising,$34M,USA,Columbia,8850 Stanford Blvd,21045,39.205649,-76.77514
Rebtel,mobile,$20M,SWE,Nacka Strand,Fabrikorvagen 4,131 52,59.3167843,18.1582777
Amazon,ecommerce,$8M,USA,Seattle,1200 12th Ave,98144,47.5923,-122.317295
SplashCast,advertising,$4M,USA,,,,37.09024,-95.712891
Brightcove,enterprise,$103M,USA,Cambridge,One Cambridge Center,02142,42.362993,-71.086596
Nimbuzz,mobile,$25M,NLD,Capelle a/d IJssel,301 Rivium Boulevard,2909 LK,51.9122575,4.5464658
obopay,mobile,$145M,USA,Redwood City,275 Shoreline Drive,,37.524729,-122.258037
PayPal,finance,$197M,USA,San Jose,2145 E Hamilton Ave,95125,37.294465,-121.927696
Vudu,hardware,$36M,USA,Santa Clara,2890 Bower Avenue,95051,,
PermissionTV,games_video,$9M,USA,Waltham,"1601 Trapelo Road, Suite 168",02451,42.417268,-71.258466
AOL,web,$1B,USA,New York,770 Broadway,10003,40.7311317,-73.9919311
IMVU,web,$29M,USA,Mountain View,200 West Evelyn Ave.,94041,37.3927975,-122.0727749
Techstars,finance,$34M,USA,Boulder,,,40.010492,-105.276843
Nirvanix,enterprise,$70M,USA,San Diego,4445 Eastgate Mall,92121,32.877656,-117.210595
Viagogo,ecommerce,$65M,USA,San Francisco,77 Battery St Fl 4,94111-5540,51.500152,-0.126236
Metacafe,games_video,$50M,USA,San Francisco,128 King Street,94107,37.437328,-122.159928
ChaCha,advertising,$89M,USA,Carmel,14550 Clay Terrace Blvd.,46032,39.998641,-86.130347
Dropbox,software,$257M,USA,San Francisco,,94107,37.7909427,-122.4084994
MobiTV,other,$143M,USA,Emeryville,"6425 Christie Ave, 5th floor",94608,,
Snocap,games_video,$25M,USA,San Francisco,"201 Third Street, 2nd Floor",94103,,
TokBox,messaging,$26M,USA,San Francisco,501 Second Street,94107,37.779507,-122.39071
Yola,web,$25M,USA,San Francisco,201 Mission Street,94105,37.7911148,-122.3954751
Kongregate,games_video,$19M,USA,San Francisco,2 Shaw Alley,94105,37.786942,-122.401245
GoFish,games_video,$24M,USA,,,,37.09024,-95.712891
KIT digital,enterprise,$20M,USA,New York,26 W 17th Street,10011,40.751816,-73.971655
Kiva,finance,$9M,USA,San Francisco,"3180 18th Street, Suite 201",94110,37.762125,-122.4147
Fathom Online,advertising,$6M,USA,San Francisco,,,37.775196,-122.419204
Jambo,web,$5M,USA,,,,37.09024,-95.712891
Zivity,network_hosting,$8M,USA,San Francisco,329 Bryant Street,94107,37.789488,-122.397593
eXpresso,public_relations,$2M,USA,Palo Alto,2225 E. Bayshore Road,94303,37.451637,-122.121932
Helium,web,$27M,USA,Andover,300 Brickstone Square,01810,42.675189,-71.1469
ZoomInfo,search,$7M,USA,Waltham,307 Waverley Oaks Road,02452,42.38532,-71.207055
Zango,games_video,$40M,USA,Bellevue,3600 136th Place SE,98006,47.579208,-122.155668
Docstoc,web,$4M,USA,Santa Monica,409 S Santa Monica Blvd,90401,34.018275,-118.495025
Shock Treatment Management,web,$4M,USA,Seattle,"1601 2nd Avenue, Suite #1080",98101,47.610332,-122.339859
Pluck,web,$17M,USA,Austin,,,30.268735,-97.745209
Alibaba,ecommerce,$5M,CHN,Hangzhou,"6/F Chuangye Mansion, East Software Park",310099,,
Kelkoo,ecommerce,$3M,USA,London,6th Floor Portland House,SW1E 5BH,37.09024,-95.712891
CinemaNow,web,$11M,USA,Marina Del Rey,4553 Glencoe Ave # 200,90292,33.983543,-118.432526
eHarmony,web,$113M,USA,Santa Monica,2401 Colorado Avenue,90404,34.145946,-118.132351
Heavy,web,$33M,USA,New York,500 7th Avenue,10018,40.753385,-73.98962
Trulia,search,$255M,USA,San Francisco,116 New Montgomery,94501,37.766909,-122.406676
WeatherBug,web,$38M,USA,Germantown,12410 Milestone Center Dr,20876,39.2009241,-77.2630048
SpiralFrog,games_video,$45M,USA,New York,95 Morton Street,10014,37.09024,-95.712891
TripOvation,web,$3M,USA,,,,37.09024,-95.712891
Vtap,games_video,$14M,USA,Andover,,,42.656621,-71.140538
OpenTable,web,$48M,USA,San Francisco,One Montgomery,,37.785647,-122.405265
Adknowledge,advertising,$248M,USA,Kansas City,"4600 Madison Ave., 10th Floor",64112,39.044694,-94.597896
ChannelAdvisor,search,$75M,USA,Morrisville,2701 Aerial Center Parkway,27560,35.854483,-78.815635
Yap,messaging,$12M,USA,Fort Mill,940 Market Street,29708,35.22806,-80.856178
Minglebox,web,$7M,IND,Bangalore,,,12.971606,77.594376
Itiva,web,$7M,USA,,,,37.09024,-95.712891
Videojug,news,$30M,GBR,London,1 Holford Yard,WC1X 9HD,,
BBE,advertising,$10M,USA,New York,245 Fifth Avenue,10016,40.7445343,-73.9874008
Tacoda,web,$19M,USA,New York,,,40.757929,-73.985506
Fotolog,network_hosting,$4M,USA,New York,,,40.757929,-73.985506
Xfire,games_video,$7M,USA,Santa Monica,310 Wilshire Blvd.,90401,34.0184659,-118.49863
Alloy,news,$127M,USA,,,,37.09024,-95.712891
Wonga,web,$101M,GBR,London,88 Crawford Street,W1H 2EJ,51.5192042,-0.1626103
SnapTell,software,$4M,USA,Palo Alto,2741 Middlefield Road,94306,37.433414,-122.128772
Spiceworks,hardware,$54M,USA,Austin,"7300 FM 2222, Bldg 3",78730,30.386601,-97.753739
MyHeritage,social,$49M,ISR,Or Yehuda,,,32.029748,34.856173
Ooyala,analytics,$122M,USA,Mountain View,800 West El Camino Real,94040,37.386665,-122.084171
CircleUp,finance,$9M,USA,San Francisco,,,,
Glimpse,ecommerce,$4M,USA,,,,37.09024,-95.712891
hulu,games_video,$100M,USA,Los Angeles,12312 W. Olympic Blvd.,90064,34.031276,-118.456806
Nemedia,advertising,$2M,DOM,Santo Domingo Este,"Zona Franca de San Isidro, Multiuso #2.",2862,,
ZocDoc,health,$97M,USA,New York,568 Broadway,10012,,
Viewdle,analytics,$12M,USA,Palo Alto,122 Hamilton Ave.,95128,,
PubMatic,advertising,$63M,USA,Redwood City,305 Main Street,94063,37.446668,-122.156579
GlobalMotion,travel,$1M,USA,Palo Alto,516 Bryant St,94301,37.445714,-122.161247
Aviary,mobile,$19M,USA,NY,243 West 30th Street,10001,,
RotoHog,games_video,$8M,USA,Los Angeles,,,33.959799,-118.343938
Viewpoints,web,$5M,USA,Chicago,222 W. Hubbard Street,60610,41.890376,-87.63406
Avvo,legal,$23M,USA,Seattle,705 5th Avenue South,98104,47.6104101,-122.3396627
Tumri,advertising,$31M,USA,,,,37.09024,-95.712891
ChessPark,games_video,$1M,USA,West Palm Beach,,,43.67084,-83.913153
Eons,network_hosting,$32M,USA,Boston,31 5th Street,02129,42.375219,-71.056101
ValueClick,advertising,$45M,USA,,,,37.09024,-95.712891
Cuil,search,$33M,USA,Menlo Park,66 Willow Place,94025,37.451124,-122.166264
Webjam,enterprise,$2M,GBR,London,Tolworth Tower,KT6 7EL,51.519819,-0.136174
Animoto,music,$30M,USA,New York,440 Lafayette St.,,40.72948,-74.000195
GamerDNA,web,$3M,USA,Cambridge,,,42.375392,-71.118487
Jawbone,hardware,$403M,USA,San Francisco,99 Rhode Island Street,94103,37.768708,-122.402866
Fixya,web,$8M,USA,San Mateo,One Franklin Parkway,94401,37.566879,-122.323895
Sermo,health,$41M,USA,Cambridge,215 First Street,02142,42.364367,-71.078978
Mobovivo,mobile,C$1M,CAN,Calgary,1400 700 2nd St SW,T2P 4V5,,
RingCentral,messaging,$44M,USA,San Mateo,1400 Fashion Island Blvd,94404,37.560155,-122.285588
MatchMine,web,$10M,USA,Needham,175 Highland Avenue,,42.304545,-71.220187
Mimeo,web,$25M,USA,New York,460 Park Avenue South,10016,40.745216,-73.982807
Mobivox,mobile,$11M,CAN,Montreal,651 Notre-Dame West Suite 550,,45.500277,-73.560084
3Jam,mobile,$4M,USA,San Francisco,365 Vermont St,94103-5060,37.765125,-122.4044034
DocuSign,software,$116M,USA,Seattle,1301 Second Ave,98101,47.603015,-122.335668
Zannel,web,$16M,USA,San Francisco,,,37.775196,-122.419204
wunderloop,advertising,$10M,USA,London,24 Greville Street,,,
FriendFeed,web,$5M,USA,Mountain View,333 W. Evelyn Ave,94041,37.39248,-122.072612
Rupture,games_video,$3M,USA,San Francisco,400 2nd Street,94107,37.783898,-122.395234
Whiskey Media,web,$4M,USA,San Francisco,921 Front St.,94111,37.856331,-122.495222
RayV,games_video,$16M,USA,New York,"150 West 77, Suite 4",,40.781159,-73.978332
23andMe,biotech,$161M,USA,Mountain View,2606 Bayshore Parkway,94042,37.09024,-95.712891
The Climate Corporation,cleantech,$109M,USA,San Francisco,201 Third Street,94103,37.782809,-122.394354
Tabblo,web,$4M,USA,Boston,,,42.35888,-71.05682
Tumblr,web,$125M,USA,New York,"419 Park Ave. South, Suite 807",10016,40.743808,-73.983626
Radar Networks,advertising,$24M,USA,San Francisco,"410 Townsend Street, Suite 150",94107,37.7753,-122.398058
Dash,mobile,$65M,USA,Sunnyvale,888 Ross Drive,94089,37.401495,-122.031855
Payoneer,other,$14M,USA,New York,410 Park Avenue - 15th Floor,10022,40.621591,-73.960717
Shopatron,enterprise,$10M,USA,San Luis Obispo,"825 Buckley Road, Suite 200",93403,37.09024,-95.712891
Buzzwire,mobile,$12M,USA,Denver,925 South Race,80209,39.755092,-104.988123
CollegeHumor,games_video,$20M,USA,,,,37.09024,-95.712891
Renkoo,web,$9M,USA,Redwood City,Renkoo,94063,,
eXelate,advertising,$32M,USA,New York,7 West 22nd Street,10010,40.741266,-73.990753
Gydget,web,$1M,USA,San Francisco,1 Front Street,94111,37.791733,-122.398398
PicksPal,games_video,$15M,USA,Mountain View,,,37.40047,-122.072981
Zattoo,games_video,$10M,USA,Ann Arbor,1327 Jones Dr. Suite 106,48105,42.292649,-83.734673
Songbird,mobile,$11M,USA,San Francisco,2 Shaw Alley,94105,37.787126,-122.39783
Soonr,enterprise,$23M,USA,Campbell,"307 Orchard City Drive, Suite 206",95008,,
GridNetworks,network_hosting,$30M,USA,Seattle,71 Columbia Street,98104,47.602873,-122.336132
Quigo,advertising,$35M,USA,New York,"90 Park Avenue, 10th Floor",10016,40.907974,-73.84179
Comeks,mobile,$1M,GIN,Helsinki,Unioninkatu 45 A,1946,,
SezWho,web,$1M,USA,Los Altos,"1000 Fremont Avenue, #230",94024,37.351894,-122.085807
Vitrue,enterprise,$33M,USA,Atlanta,101 Marietta Street,30303,33.756806,-84.392198
Shangby,ecommerce,$1M,USA,Austin,10 Sundown Parkway,78746,30.288653,-97.822884
Vringo,software,$37M,USA,New York,780 Third Avenue,10017,40.7550005,-73.9717364
BrightRoll,advertising,$46M,USA,San Francisco,343 Sansome St.,94104,37.794643,-122.401144
Compete,consulting,$33M,USA,Boston,501 Boylston St,02116,42.346743,-71.076632
Doppelganger,web,$11M,USA,San Francisco,500 Treat Ave,94141,37.762162,-122.413912
Needium,enterprise,$1M,CAN,Montreal,460 Ste-Catherine W. #402,H3B1A7,45.5049305,-73.5681635
Loopt,mobile,$32M,USA,Mountain View,590 W. El Camino Real,94040,37.384717,-122.081625
Fix8,games_video,$5M,USA,Sherman Oaks,15250 Ventura Blvd,91403,34.152826,-118.465582
Podaddies,advertising,$1M,USA,San Francisco,,94103,37.7726402,-122.4099154
Zecco,web,$35M,,,,,,
Peerflix,advertising,$10M,USA,Palo Alto,"560 Waverley, Suite 200",,37.446407,-122.159712
Omniture,advertising,$25M,USA,Orem,550 East Timpanogos Circle,84097,40.323902,-111.68192
Vobile,web,$10M,USA,Santa Clara,"4699 Old Ironsides Drive, Ste 430",95054,37.399208,-121.97895
Wellocities,web,C$1M,CAN,"Toronto, Ontario",,,43.670233,-79.386755
HowStuffWorks,web,$75M,USA,Atlanta,"3350 Peachtree Road, Suite 1500",30326,37.09024,-95.712891
ZeniMax,games_video,$586M,USA,Rockville,1370 Piccard Drive,20850,39.105555,-77.179772
Taboola,photo_video,$40M,USA,New York,19 W 21 St,10010,,
eSnips,network_hosting,$5M,ISR,Herzliya Pituach,P.O. Box 4010,46140,,
Blowtorch,games_video,$50M,USA,Sausalito,10 Liberty Ship Way #330,94965,37.862592,-122.493561
GameLayers,web,$2M,USA,San Francisco,1 Lombard Street,94111,37.803847,-122.402468
Mogreet,mobile,$14M,USA,Venice,555 Rose Avenue,90291,33.999004,-118.472297
WEbook,web,$5M,USA,New York,307 Fifth Avenue,10016,38.984172,-77.095965
Hark,web,$5M,USA,Seattle,1620 Broadway,98122,,
OANDA,web,$117M,CAN,Toronto,370 King Street West,M5V 1J9,,
Splunk,software,$40M,USA,San Francisco,250 Brannan St.,94107,37.78274,-122.390945
xkoto,software,$11M,USA,Waltham,"275 Wyman Street,",02451,42.405685,-71.255857
TrustedID,security,$25M,USA,Palo Alto,395 Page Mill Road,94306,37.520592,-122.255907
Youku,photo_video,$120M,CHN,Shanghai,Unit 1 3301-3303 Grand Gateway,200030,31.2006566,121.4384701
Tinselvision,web,$6M,USA,,,,,
Phanfare,web,$5M,USA,Princeton,84 Nassau Street,08540,40.349854,-74.660287
SeeToo,enterprise,$1M,USA,New York,,,40.755861,-73.996272
Paltalk,other,$6M,USA,New York,Church Street Station,10008,,
Seeqpod,search,$7M,USA,Emeryville,6475 Christie Avenue Suite 475,95826,37.8454819,-122.296342
Yodle,advertising,$40M,USA,New York,50 West 23rd Street,10010,40.742459,-73.9918126
Qwaq,web,$7M,USA,Palo Alto,460 S. California Avenue,94306,37.425591,-122.145416
Snapvine,other,$12M,USA,Seattle,419 Occidental Ave South,98104,47.598968,-122.332904
Deezer,music,$149M,FRA,Paris,"12, rue d'Athenes",75009,48.8780596,2.3283853
betNOW,web,$5M,GBR,London,14 Garrick Street,WC2E 9SB,51.511599,-0.126389
HubSpot,software,$131M,USA,Cambridge,25 First St.,02141,42.375392,-71.118487
Utterz,mobile,$4M,USA,Maynard,63 Great Road,01754,42.431555,-71.483077
Vidyo,messaging,$141M,USA,Hackensack,433 Hackensack Ave,07601,40.909378,-74.033707
Fraud Sciences,security,$11M,USA,Palo Alto,1032 Elwell Court,94303,37.09024,-95.712891
iMemories,enterprise,$16M,USA,Scottsdale,9181 East Bell Road,85260,33.639318,-111.883237
Dapper,advertising,$3M,USA,San Francisco,290 King Street,94107,37.7766184,-122.3938931
ClickTale,analytics,$23M,ISR,Ramat Gan,2 Shoham st.,52521,31.046051,34.851612
TradeKing,web,$6M,USA,Fort Lauderdale,888 E. Las Olas Blvd,33301,26.119102,-80.1343038
Jacked,advertising,$9M,USA,Santa Monica,3143 Donald Douglass Loop South,90405,,
CafeMom,network_hosting,$17M,USA,New York,401 Park Ave S,10016-8808,37.09024,-95.712891
Shipwire,enterprise,$10M,USA,,,,37.09024,-95.712891
Takkle,web,$7M,USA,,,,37.09024,-95.712891
WildTangent,games_video,$84M,USA,Redmond,18578 NE 67th Ct,98052,37.09024,-95.712891
Gilt Groupe,fashion,$236M,USA,New York,2 Park Ave Fl 4,10016-5602,40.74727,-73.9800645
BeliefNet,web,$7M,USA,New York,115 E 23rd Street,10010,40.740231,-73.985433
Smilebox,photo_video,$14M,USA,Redmond,8201 164th Ave NE,98052,47.676378,-122.122155
Kosmix,web,$55M,USA,Mountain View,,94041,37.3867729,-122.0752224
Ribbit,mobile,$11M,USA,Mountain View,800 W. El Camino Real,94040,37.386665,-122.084171
HubPages,web,$8M,USA,San Francisco,95 Minna Street,94105,37.7876952,-122.3991505
ideeli,ecommerce,$107M,USA,New York,620 8th Ave,10018,40.755978,-73.990396
WeShow,games_video,$5M,USA,New York,,10017,40.752516,-73.973072
Deem,ecommerce,$467M,USA,San Francisco,301 Howard Street,94105,37.559836,-122.271532
KAYAK,search,$235M,USA,Norwalk,55 N. Water Street,06854,41.1010914,-73.4168779
Mobissimo,search,$1M,USA,San Francisco,631 Howard St. suite 520,94105,37.78624,-122.39897
REVShare,web,$20M,USA,,,,37.09024,-95.712891
GridPoint,cleantech,$285M,USA,Arlington,2801 Clarendon Blvd. Suite 100,22201,38.888107,-77.091562
HelioVolt,cleantech,$253M,USA,Austin,8201 E. Riverside Dr. Suite 600,78744-1604,30.216908,-97.685078
Ausra,cleantech,$123M,USA,Mountain View,303 Ravendale Drive,94043,37.446526,-122.117933
Kior,cleantech,$298M,USA,Pasadena,13001 Bay Park Road,77507,37.09024,-95.712891
Atlassian,enterprise,$60M,AUS,Sydney,"Level 6, 341 George St Sydney, NSW, 2000, Australia",2000,,
Nanosolar,nanotech,$520M,USA,San Jose,5521 Hellyer Ave.,95138,37.264749,-121.789862
Shozu,mobile,$36M,USA,San Francisco,"600 Townsend St., Suite 120E",94103,37.771706,-122.402683
Fyreball,web,$1M,USA,Bellevue,,,47.597965,-122.151158
Tesla Motors,automotive,$823M,USA,Palo Alto,3500 Deer Creek rd.,94304,37.496737,-122.245323
Fotolia,advertising,$225M,USA,New York,"41 East 11th Street, 11th Floor",10003,,
Kenshoo,advertising,$12M,ISR,Tel Aviv,6 Habarzel Street,,,
LifeOnKey,web,$10M,USA,New York,419 Lafayette Street,10003,37.09024,-95.712891
Scrapblog,web,$10M,USA,San Francisco,110 Sutter,94104,25.752358,-80.25468
jellyfish,web,$5M,USA,Middleton,"1600 Aspen Commons, Suite 950",53562,,
Onaro,network_hosting,$10M,USA,Boston,500 Harrison Ave,02118,42.341899,-71.065924
Meraki,network_hosting,$80M,USA,San Francisco,660 Alabama St.,94110,37.392443,-122.072517
ice,ecommerce,$47M,USA,,,,37.09024,-95.712891
SugarCRM,software,$135M,USA,Cupertino,10050 North Wolfe Road,95014,37.323739,-122.014147
DeepRockDrive,games_video,$3M,USA,Las Vegas,,89173,36.1062,-115.1374
bluepulse,network_hosting,$6M,USA,San Mateo,71 East 3rd Avenue,94401,37.563905,-122.324688
Jobfox,web,$42M,USA,McLean,7926 Jones Branch Drive,22102,38.92719,-77.216969
Joyent,enterprise,$112M,USA,San Francisco,One Embarcadero Center,94111,37.856743,-122.480153
Delver,search,$4M,ISR,Herzeliya,9 Hamenofim St.,46725,,
SuccessFactors,enterprise,$35M,USA,San Mateo,1500 Fashion Island Blvd. Suite 300,94404,37.557637,-122.285714
TicketsNow,ecommerce,$34M,USA,Rolling Meadows,3800 Golf Road Suite 125,60008,42.050903,-88.027569
yoonew,web,$4M,USA,New York,1412 Broadway Suite 1822,10018,40.75362,-73.986557
Oversee,web,$210M,USA,Los Angeles,515 S. Flower Street Suite 4400,90071,34.051368,-118.256305
Zynga,games_video,$860M,USA,San Francisco,365 Vermont St.,94103,37.765158,-122.404234
Enforta,mobile,$40M,RUS,Moscow,"Mishina Street 56; Building 2, 6th Floor",127083,,
WAYN,network_hosting,$11M,GBR,London,,,51.500152,-0.126236
Smaato,advertising,$18M,USA,San Francisco,"240 Stockton St, 10th Floor",94108,,
Studyplaces,web,$3M,USA,,,,,
Jellyvision,advertising,$5M,USA,,,,37.09024,-95.712891
ProQuo,web,$13M,USA,,,,37.09024,-95.712891
Badoo,web,C$30M,GBR,London,,,,
Wellsphere,web,$3M,USA,San Mateo,1730 S. El Camino Real Suite 600,94402,37.55153,-122.314072
blinkbox music,music,$6M,GBR,Oxford,9400 Garsington Road,OX4 2HN,51.7319786,-1.2063327
Credit Karma,finance,$33M,USA,San Francisco,,94104,,
Amobee,advertising,$60M,USA,Redwood City,100 Marine Parkway,94065,37.52845,-122.263721
Visible Measures,advertising,$90M,USA,Boston,143 South Street,02111,42.3536303,-71.0590483
Adchemy,advertising,$119M,USA,Foster City,1001 E Hillsdale Blvd,94404,,
HealthCentral,web,$50M,USA,Arlington,2300 Wilson Blvd.,22201,38.894403,-77.068267
Endeca,search,$65M,USA,Cambridge,101 Main Street,02142,42.36233,-71.081527
WorldTV,games_video,$1M,IRL,Limerick,,,52.6638571,-8.6267726
General Electric,other,$2M,USA,Fairfield,3135 Easton Turnpike,06828,41.216225,-73.2525873
Heroku,enterprise,$13M,USA,San Francisco,,,37.775196,-122.419204
Tipjoy,legal,$1M,USA,Arlington,661 Mass Ave,02476,42.4159418,-71.1543315
Sharetivity,web,$2M,USA,Palo Alto,530 University Ave,94303,37.550954,-122.315396
First30Days,web,$5M,USA,Louisville,1760 Frankfort Avenue,40206,38.257035,-85.717393
Seatwave,ecommerce,$53M,GBR,London,120 Moorgate,EC2M 6UR,51.500152,-0.126236
BreakingPoint Systems,security,$20M,USA,Austin,3900 N. Capital of Texas Highway,78746,30.384453,-97.709809
VisualCV,web,$5M,USA,Reston,11654 Plaza America Drive,20190,38.9530391,-77.3479238
b5media,web,$2M,CAN,"Toronto, ON",174 Spadina Ave,M5T 2C2,,
Offermatica,software,$7M,USA,San Francisco,Pier One Bay Three,94111,,
SpotXchange,advertising,$12M,USA,Westminster,"11030 CirclePoint Road, Suite 350",80020,39.89674,-105.07359
Maven Networks,games_video,$12M,USA,Cambridge,,,42.375392,-71.118487
MyNewPlace,web,$20M,USA,San Francisco,"360 3rd Street,",94107,,
Mixbook,web,$11M,USA,Palo Alto,409 Sherman Ave,94306-1827,37.383844,-121.918319
Oddcast,web,$4M,USA,New York,134 W. 37th Street,10018,40.752325,-73.988477
Snap Technologies,web,$10M,USA,Pasadena,130 W. Union,91103,34.146436,-118.153136
Three Rings,web,$7M,USA,San Francisco,,,37.775196,-122.419204
Smalltown,web,$4M,USA,San Mateo,210 S B Street,94401,37.566123,-122.323045
Shelfari,web,$1M,USA,Seattle,,,47.620716,-122.347533
Cellfire,mobile,$26M,USA,San Jose,2890 Zanker Road,95054,37.395923,-121.92902
HomeAway,travel,$504M,USA,Austin,1011 W. Fifth Street,78703,,
Netflix,games_video,$230M,USA,Los Gatos,100 Winchester Circle,95032,37.25142,-121.968687
Danger,mobile,$118M,USA,Palo Alto,3101 Park Blvd,94306,37.425168,-122.136248
Coverity,enterprise,$22M,USA,San Francisco,185 Berry Street,94107,37.7759675,-122.3931128
Fortify Software,software,$10M,USA,San Mateo,2215 Bridgepointe Parkway,94404,37.560781,-122.284114
Sitemasher,enterprise,C$5M,CAN,Vancouver,Suite 200,V5Y1J5,,
MediaTrust,advertising,$21M,USA,New York,"404 Park Avenue South,",10016,40.743662,-73.984268
GenieTown,search,$2M,USA,Palo Alto,430 Sherman Ave. Ste. 100,94306,37.425773,-122.144271
RiffTrax,games_video,$5M,USA,San Diego,12230 El Camino Real,92130,32.936973,-117.240431
Direct Hit,search,$26M,USA,Melbourne,1680 West Hibiscus Boulevard,32901,28.0854206,-80.6475007
Pentaho,analytics,$72M,USA,Orlando,Citadel International Suite 340,32822,,
Evernote,software,$251M,USA,Redwood City,305 Walnut St,94063,37.386774,-121.987661
Raptr,games_video,$27M,USA,Mountain View,701 N Shoreline Blvd,94043,37.40384,-122.07808
Covario,enterprise,$16M,USA,San Diego,3611 Valley Centre Drive,92130,32.912063,-117.114827
Kluster,web,$1M,USA,New York,3rd St & Ave A,10016,40.723652,-73.985281
MessageOne,,$10M,USA,Austin,11044 Research Blvd,78759,30.405197,-97.745673
Howcast,photo_video,$11M,USA,New York City,518 Broadway 2nd Floor,10012,40.646166,-73.889492
SugarSync,web,$61M,USA,San Mateo,1810 Gateway Drive,94404,37.54763,-122.307887
Phorm,advertising,$89M,GBR,London,2nd Floor Liberty House,,,
BillShrink,web,$9M,USA,Redwood City,601 Marshall St.,94063,37.503147,-122.211435
Outbrain,web,$99M,USA,New York City,116 E. 16th Street,10003,40.757929,-73.985506
DivX,software,$35M,USA,San Diego,4780 Eastgate Mall,92121,32.880882,-117.203309
Kazeon,enterprise,$41M,USA,Mountain View,1161 San Antonio Road,94303,37.431769,-122.099577
Yodlee,ecommerce,$124M,USA,Redwood City,"3600 Bridge Parkway, Suite 200",94065,37.538603,-122.251539
SlideRocket,enterprise,$7M,,,,,,
Quintura,search,$6M,RUS,"Sergiev Posad, Moscow Region","Academician Silin street 7, office 45",141300,,
Collactive,web,$2M,USA,Wilmington,1313 N. Market Street,19801,39.748985,-75.546329
Right Media,advertising,$45M,USA,New York,45 West 18th Street,10011,40.74632,-73.982607
Central Desktop,public_relations,$7M,USA,Pasadena,129 N Hill Ave #202,91106,34.148374,-118.121822
SafeNet,security,$139M,USA,Belcamp,4690 Millennium Drive,21017,39.467752,-76.23537
Tectura,software,$10M,USA,Redwood City,333 Twin Dolphin Drive,94065,,
Boonty,games_video,$10M,USA,New York,54 Franklin Street,10013,40.717248,-74.002662
crowdSPRING,ecommerce,$3M,USA,Chicago,1200 W. Lake St,60607,41.88583,-87.657354
99designs,design,$35M,USA,San Francisco,447 Battery St.,94111,37.7955307,-122.4005983
Innofidei,hardware,$10M,CHN,Beijing,1 Zhongguancun East Road,100084,39.905556,116.395833
LiveRail,advertising,$12M,USA,San Francisco,575 Market St.,94105,37.787183,-122.397759
Generate,games_video,$8M,USA,Santa Monica,1545 26th Street,90404,34.031328,-118.471463
Footnote,web,$10M,USA,Lindon,355 South 520 West,84042,40.3310529,-111.7276347
Radialpoint,software,$98M,CAN,Montreal,2050 Bleury,H3A 2J5,45.5075577,-73.5696547
Satmetrix,software,$1M,USA,San Mateo,1100 Park Place,94403,37.55818,-122.276454
Platform Solutions,hardware,$37M,USA,Sunnyvale,501 Macara Avenue,94085,,
SpectraSensors,enterprise,$26M,USA,Rancho Cucamonga,11027 Arrow Route,91730,,
Vidient,software,$12M,USA,Santa Clara,4000 Burton Drive,95054,,
Visto,mobile,$156M,USA,Sunnyvale,430 N. Mary Ave,94085,37.518539,-122.254275
LiveOps,public_relations,$51M,USA,Santa Clara,5425 Stevens Creek Blvd.,95051,37.323668,-122.004204
Polaris Wireless,mobile,$10M,USA,Mountain View,301 North Whisman Road,94043,37.397528,-122.05892
Imperva,software,$37M,USA,Redwood City,3400 Bridge Pkwy Ste 200,94065-1195,,
Sabrix,software,$13M,USA,Lake Oswego,5665 SW Meadows Rd,97035,,
Workday,enterprise,$175M,USA,Pleasanton,6230 Stoneridge Mall Road,94588,37.694202,-121.921532
CompanyLoop,network_hosting,$5M,USA,Mountain View,"148 Castro Street,",94041,37.394456,-122.078531
DailyStrength,web,$5M,USA,Los Angeles,12121 wilshire boulevard,90025,34.043948,-118.468204
Clarizen,software,$56M,USA,San Mateo,"2988 Campus Drive,",94403,37.536044,-122.328401
FriendFinder Networks,games_video,$551M,MYS,Boca Raton,6800 Broken Sound Parkway,56100,26.4074809,-80.1169895
Skydeck,mobile,$4M,USA,Palo Alto,330 Waverley St.,94301,37.5645375,-122.3254705
NeoEdge Networks,advertising,$10M,USA,Mountain View,215 Castro Street,94041,37.393679,-122.079017
Zuora,software,$128M,USA,Foster City,1051 East Hillsdale Boulevard,94404,37.5596277,-122.2709868
modu,mobile,$85M,ISR,Kfar-Saba,17 Atir Yeda Street,44643,,
Kidaro,enterprise,$14M,USA,Redmond,1 Microsoft Way,98052,47.6435828,-122.1285846
Tower Semiconductor,semiconductor,$25M,ISR,,"Ramat Gavriel Industrial Area, P.O. Box 619",23105,,
Voltage Security,security,$27M,USA,Cupertino,20400 Stevens Creek Blvd.,95014,37.399481,-122.1345417
Cenzic,software,$16M,USA,Campbell,655 Campbell Technology Parkway,95008,37.2816136,-121.9410679
Infopia,software,$20M,USA,Salt Lake City,56 East Broadway,84111,40.762412,-111.889137
kwiry,mobile,$1M,USA,San Francisco,47 Kearny St.,94108,37.7885714,-122.4035985
Scalent Systems,public_relations,$15M,USA,Palo Alto,1076b East Meadow Circle,94303,37.429676,-122.1085482
SignalDemand,software,$30M,USA,San Francisco,"101 California Street, Suite 1950",94111,,
Authenticlick,search,$5M,USA,Los Angeles,5757 Wilshire Blvd.,90036,34.062504,-118.354605
Wrike,enterprise,$11M,USA,San Jose,,95113,37.3973787,-122.0879281
Playfish,games_video,$21M,GBR,London,125 Kensington High St,London,51.4991094,-0.1984802
Tapioca Mobile,mobile,$5M,USA,San Diego,7220 Trade St,92121,32.88945,-117.166929
Monitor110,web,$25M,USA,New York,58 E 11th St.,10003,40.732748,-73.992607
WebVisible,software,$37M,USA,Playa Vista,5510 Lincoln Blvd.,90094,,
BladeLogic,enterprise,$7M,USA,Houston,2101 City West Blvd,77042,29.7805488,-95.3457921
ScanCafe,web,$4M,USA,Burlingame,1475 Rollins Road,94010,37.592584,-122.369676
liveBooks,public_relations,$5M,USA,Sausalito,4000 Bridgeway,94965,37.8712444,-122.5036866
Moblica,mobile,$6M,ISR,Tel Aviv,88 Menachem Begin Street,67138,32.0554,34.7595
Kampyle,web,$1M,ISR,Ramat Gan,7 Abba Hillel St.,,,
XIHA,games_video,$1M,FIN,Helsinki,Mannerheimintie 12 B,00100,60.1681494,24.9410012
Glaxstar,software,$4M,GBR,Birmingham,One Victoria Square,,52.479554,-1.903186
Adconion Media Group,advertising,$114M,USA,Santa Monica,3301 Exposition Blvd.,90404,,
Cvent,software,$137M,USA,McLean,8180 Greensboro Dr.,22102,38.923453,-77.227525
Zend Technologies,software,$44M,USA,Cupertino,19200 Stevens Creek Blvd.,95014,37.322385,-122.008549
iCrossing,public_relations,$62M,GBR,"Brighton, BN1 1ND",Moore House,,,
GotVoice,mobile,$3M,USA,Kirkland,10512 NE 68th Street,98033,47.666791,-122.199525
SlideShare,web,$3M,USA,San Francisco,"490 2nd St, 301",94107,37.776878,-122.400934
CLEAR,travel,$116M,USA,New York,595 Madison Avenue,10022,29.4748,-81.1274
babbel,education,$10M,DEU,Berlin,Bergmannstr. 5,10961,52.4897,13.38861
ibeatyou,games_video,$1M,USA,Santa Monica,,90408,34.0195,-118.4906
roomlinx,network_hosting,$3M,USA,BROOMFIELD,11101 W. 120th AVENUE,80021,,
Kannuu,software,$2M,USA,Dallas,8111 LBJ Freeway,75251,32.9249424,-96.7679229
Wikimedia Foundation,nonprofit,$74M,USA,San Francisco,149 New Montgomery St.,94105,37.76785,-122.392839
Clearwell Systems,software,$29M,USA,Mountain View,441 Logue Ave.,94043,37.398022,-122.049143
Infoblox,public_relations,$30M,USA,Santa Clara,3111 Coronado Drive,95054,,
Weplay,web,$13M,USA,New York,156a Reade St,10013,,
MindBites,web,$1M,USA,,,,37.09024,-95.712891
BeInSync,network_hosting,$8M,ISR,Tel Aviv,,,32.0554,34.7595
iovation,security,$15M,USA,Portland,111 SW 5th Avenue,97204,45.52254,-122.675536
Game Trust,software,$9M,USA,New York,135 West 20th Street,10011,,
Datacraft Solutions,software,$4M,USA,Durham,1502 West Hwy 54,27707,35.999586,-78.9065
Red Bend Software,mobile,$20M,USA,Waltham,"400-1 Totten Pond Road, Suite 130",02451,42.389795,-71.239286
itzbig,search,$4M,USA,Austin,8911 Capital of Texas Highway North,78759,30.387275,-97.759511
Marketo,software,$108M,USA,San Mateo,901 Mariners Island Blvd,94404,37.5583,-122.301385
Edmodo,education,$40M,USA,San Mateo,"60 E. Third Ave., #390",94401,41.857915,-88.321171
Minggl,network_hosting,$1M,USA,Austin,,,30.268735,-97.745209
Spongecell,advertising,$10M,USA,New York,"261 Madison Avenue, 14th Floor",10016,37.773727,-122.401537
Placecast,mobile,$8M,USA,San Francisco,165 Page St.,94102,37.773688,-122.423468
Palm,mobile,$100M,USA,Sunnyvale,950 W. Maude Ave,94085,37.392362,-122.040051
CarDomain Network,web,$3M,USA,Seattle,1633 Westlake Ave N,98119,47.634741,-122.340435
Undertone,advertising,$40M,USA,New York,340 Madison,10178,40.7509033,-73.9779759
Frengo,web,$8M,USA,San Mateo,1875 South Grant Road,94402,37.553121,-122.301534
Zong,mobile,$15M,USA,Menlo Park,640 Oak Grove Avenue,94025,37.4429885,-122.1624131
Cotendo,software,$36M,ISR,Netanya,"4 Hagavish St., Entry A, Second Floor",42507,,
Obvious,web,$2M,USA,San Francisco,164 South Park Street,94107,,
Cellfish,web,$60M,USA,New York,215 Lexington Avenue,10016,40.761855,-73.983754
eSolar,cleantech,$192M,USA,Pasadena,130 West Union Street,91103,34.146436,-118.153136
Marin Software,advertising,$100M,USA,San Francisco,123 Mission St.,94105,37.792083,-122.3946404
SiBEAM,mobile,$114M,USA,Sunnyvale,555 N. Mathilda Avenue,94085,37.390704,-122.03039
Baidu,search,$161M,CHN,Beijing,No. 58 North-West 4th Ring Road,100080,,
Tideway,software,$27M,GBR,London,Anchor House,SW3 3TY,,
Vivity Labs,games_video,$1M,CAN,Vancouver,21 Water Street,V6B 1A1,49.282249,-123.108456
Velocix,games_video,$25M,GBR,Cambridge,326 Cambridge Science Park,CB4 0WG,,
iRise,software,$20M,USA,El Segundo,2321 Rosecrans Ave.,90245,33.9019812,-118.3812173
Univa UD,software,$33M,USA,Lisle,1001 Warrenville Rd,60188,41.808458,-88.073008
TrustedPlaces,advertising,$1M,GBR,London,Phoenix Yard,WC1X 9LW,51.524483,-0.113583
Shopflick,ecommerce,$8M,USA,Los Angeles,10500 W. Pico Blvd,90064,34.044939,-118.419067
vzaar,web,$3M,GBR,London,31-33 Bondway,SW8 1SJ,,
Comcast,games_video,$725M,USA,Philadelphia,1701 JFK Blvd,19103,39.9525762,-75.1652518
Monkeysee,games_video,$1M,USA,Great Falls,774 Walker Road 2nd Floor,22066,,
Angie's List,web,$183M,USA,Indianapolis,1030 E. Washington Street,46202,39.767289,-86.139793
Engage,web,$5M,,,,,,
SquareTrade,hardware,$248M,USA,San Francisco,575 Market Street,94105,37.789551,-122.40036
GitHub,software,$100M,USA,San Francisco,275 Brannan St.,94107,37.775196,-122.419204
ArticleAlley,web,$1M,,,,,,
Kasenna,software,$11M,USA,Sunnyvale,1196 Borregas Avenue,94089,37.407588,-122.019357
Visible World,advertising,$33M,USA,New York,460 W. 34th St. Floor 14,10001,40.75406,-73.999003
ReefEdge,network_hosting,$15M,USA,Fort Lee,2 Executive Drive,07024,,
Globant,software,$28M,ARG,Buenos Aires,Ingeniero Butty 240 6Â° floor,C1001AFB,-34.5967236,-58.3708904
ImageShack,network_hosting,$10M,USA,Los Gatos,236 N Santa Cruz Ave,95030,37.226709,-121.98147
PluggedIn,games_video,$2M,USA,Santa Monica,,,34.007967,-118.489681
CellSpin,advertising,$2M,USA,San Jose,4423 Fortran Drive,95134,37.421731,-121.957018
InMobi,mobile,$216M,IND,Bangalore,"Pebble Beach, Ground Floor, Embassy Golf Link Business Park,",,,
Wayfair,ecommerce,$201M,USA,Boston,177 Huntington Ave,02115,42.348691,-71.082523
BuildDirect,ecommerce,$33M,CAN,Vancouver,717 West Pender St.,V6C 3G9,49.283935,-123.11593
Modern Feed,games_video,$3M,USA,Los Angeles,818 N. La Brea Ave.,90038,34.085749,-118.343791
Aardvark,web,$6M,USA,San Francisco,,94110,37.748676,-122.415813
MyWebGrocer,advertising,$61M,USA,Winooski,20 Winooski Falls Way,05404,44.509265,-73.183959
Serious Business,games_video,$4M,USA,San Francisco,580 Market Street,94104,37.7893215,-122.4013624
Retail Convergence,ecommerce,$25M,USA,Boston,,,42.35888,-71.05682
TuneWiki,music,$10M,USA,Santa Monica,725 Arizona Avenue,90401,37.412577,-121.916861
Tealeaf,advertising,$12M,USA,San Francisco,45 Fremont St.,94105,37.791242,-122.397133
Spotify,music,$533M,LUX,Luxembourg,22 av. Marie-ThÃ©rÃ¨se,,49.607295,6.121511
Adify,advertising,$27M,USA,San Bruno,"1000 Cherry Avenue, Suite 200",94066,37.629393,-122.424975
InvenSense,semiconductor,$38M,USA,San Jose,1745 Technology Dr,95110,37.407445,-122.019405
Kabam,games_video,$125M,USA,San Francisco,795 Folsom Street,94107,37.3944561,-122.0785314
Mind Candy,web,$10M,GBR,London,"Unit 4.01, Tea Building",E1 6JJ,51.471958,-0.147646
New Relic,software,$175M,USA,San Francisco,,,37.269175,-119.306607
Gridstone Research,software,$10M,USA,San Mateo,1900 Alameda de las Pulgas,94403,37.54588,-122.321354
PatientsLikeMe,health,$27M,USA,Cambridge,155 Second Street,02141,42.3674989,-71.0793952
Zinch,web,$5M,USA,San Francisco,"600 Townsend St, East Building",94103,40.234451,-111.658656
Citizen Sports,games_video,$10M,USA,San Francisco,525 Brannan St,94107,37.777513,-122.397044
Blue Nile,web,$49M,USA,Seattle,411 1st Avenue S,98104,,
SportsBlogs,web,$34M,,,,,,
Opsware,enterprise,$186M,USA,Sunnyvale,,,,
MarketLive,ecommerce,$20M,USA,Petaluma,"617 2nd Street, Suite B",94952,38.2310498,-122.6309861
Memopal,network_hosting,$1M,ITA,Rome,"Via Nepal, 29",00144,41.823172,12.461425
Skyrider,software,$17M,USA,Mountain View,201A Ravendale Drive,94043,,
Fanzter,web,$4M,USA,Unionville,45 South Main Street,06085,,
XunLight,cleantech,$33M,USA,Toledo,3145 Nebraska Avenue,43607,41.645278,-83.618593
Control4,hardware,$93M,USA,Salt Lake City,11734 South Election Road,84020,,
Talend,analytics,$102M,USA,Los Altos,5150 El Camino Real,94022,37.371908,-122.111711
Vurv Technology,software,$5M,USA,Jacksonville,"7660 Centurion Parkway, Suite 100",32256,30.238185,-81.543165
Wirama,hardware,$1M,USA,Sunnyvale,440 N. Wolfe Rd.,94085,37.384239,-122.012475
Rosum,mobile,$31M,USA,Mountain View,301 North Whisman Road,94043,37.397302,-122.059562
Authentium,software,$21M,USA,Palm Beach Gardens,7121 Fairway Dr,33418,26.837923,-80.134733
The Motley Fool,finance,$25M,USA,Alexandria,"2000 Duke St., Fourth Floor",22314,,
Nvidia,hardware,$25M,USA,Santa Clara,2701 San Tomas Expressway,95050,37.370026,-121.965381
Appfolio,real_estate,$30M,USA,Goleta,50 Castilian Dr.,93117,34.433463,-119.863565
Blackberry,hardware,$1B,CAN,Waterloo,295 Phillip Street,N2L 3W8,43.476528,-80.539594
CitizenHawk,advertising,$3M,USA,Aliso Viejo,,,33.571604,-117.734795
IP Commerce,network_hosting,$44M,USA,Denver,1001 17th Street,80202,39.74893,-104.99342
SimpleTuition,finance,$31M,USA,Boston,268 Summer Street,02210,42.297418,-71.214796
Sparkroom,advertising,$4M,CAN,Toronto,"661 Yonge Street, Suite 500",M4Y 1Z9,43.6683,-79.385969
Infinia,cleantech,$152M,USA,OGDEN,,84404,46.220919,-119.22322
Rapleaf,messaging,$16M,USA,Chicago,222 Merchandise Mart Plaza,60654,37.7867392,-122.4013875
Efficient Frontier,advertising,$6M,USA,Sunnyvale,809 Eleventh Avenue,94089,37.4049731,-122.0323525
rVita,software,$1M,USA,Santa Clara,4677 Old Ironsides Drive,95054,37.398476,-121.978821
[x+1],enterprise,$45M,USA,New York,315 Park Avenue South,10010,40.7455068,-73.982624
OleOle,network_hosting,$5M,USA,Beverly Hills,9777 Wilshire Blvd,90212,34.067153,-118.409161
SilkRoad Technology,software,$178M,USA,Chicago,20 West Kinzie Street,60654,,
myThings,advertising,$40M,GBR,London,4F. Walkden House,NW1 2EB,,
mywaves,mobile,$6M,SAU,Sunnyvale,4593,94085,37.3886,-122.016779
Aquantia,semiconductor,$138M,USA,Milpitas,700 Tasman Drive,95035,37.4130233,-121.9175461
Aprius,hardware,$22M,USA,Washington,3738 Technology Ave.,,47.6409655,-117.5357108
AirCell,messaging,$276M,USA,Itasca,1250 North Arlington Heights Rd,60143,41.989344,-88.004903
Row44,network_hosting,$103M,USA,Westlake Village,31280 Oak Crest Drive,91361,34.143152,-118.80146
Aster Data Systems,analytics,$53M,USA,San Carlos,999 Skyway Rd,94070,37.5068854,-122.2475729
Atmail,messaging,$2M,AUS,Peregian Beach,Unit 22,4573,,
Roku,hardware,$127M,USA,Saratoga,"12980 Saratoga Ave., Ste. D",95070,37.279969,-122.002271
Sonico,social,$6M,ARG,Buenos Aires,"Ayacucho 1246, 2Âº Floor",,-34.611781,-58.417309
eBureau,analytics,$38M,USA,St. Cloud,25 6th Avenue North,56303,45.560899,-94.159452
PA Semi,semiconductor,$86M,,,,,,
Sirtris Pharmaceuticals,biotech,$82M,USA,Cambridge,200 Technology Square,02139,42.363567,-71.091189
Knewton,education,$105M,USA,New York,100 5th Avenue,10011,40.7310476,-74.0078134
EnterMedia,advertising,$1M,RUS,Moscow,"Leningradsky Prospekt, 72, p. 4",,,
Massive,software,$10M,,,,,,
CoverItLive,web,$1M,USA,Austin,200 Academy,78704,43.6378576,-79.4255306
ScribbleLive,enterprise,C$12M,CAN,Toronto,488 Wellington St. W,M5V 1E3,43.64308,-79.406775
Zefanclub,web,$1M,FRA,Paris,19 Rue Vivienne,75002,48.868478,2.339843
Zinio,news,$27M,USA,San Francisco,114 Sansome Street,94104,37.7915,-122.40045
PurePlay,games_video,$15M,USA,San Francisco,,,37.775196,-122.419204
Apertio,mobile,$30M,GBR,Bristol,,BS16 7AR,51.499708,-2.533334
Axentra,software,$6M,CAN,Ottawa,"377 Dalhousie Street,",K1N 9N8,45.427398,-75.689871
Optasite,mobile,$60M,USA,Westborough,One Research Drive,01581,,
Vaultus Mobile,mobile,$6M,USA,Boston,263 Summer Street,02210,42.350359,-71.0506234
Handmark,mobile,$10M,USA,Kansas City,909 Walnut Street #400,64106,39.103151,-94.581908
TRUSTe,enterprise,$37M,USA,San Francisco,835 Market Street,94103,37.7886685,-122.4005576
M:Metrics,mobile,$18M,USA,Seattle,,,47.620716,-122.347533
Jambool,finance,$6M,USA,San Francisco,501 Folsom St,94105,37.782101,-122.389519
VMware,software,$369M,USA,Palo Alto,3401 Hillview Ave,94304,37.403315,-122.145981
Odysii,software,$20M,ISR,Herzliya,11 Hamenofim Street,46852,,
Monte Cristo,games_video,$7M,,,,,,
Jigsaw,web,$18M,USA,San Mateo,777 Mariners Island Boulevard,94404,37.552806,-122.291602
Backblaze,software,$5M,USA,Palo Alto,425A Forest Ave,94301,37.44296,-122.151198
OpenAir,software,$16M,USA,Boston,"211 Congress St., 8th Floor",02110,,
LiveU,news,$50M,ISR,Kfar Saba,9 Atir Yedda St.,44643,,
Navic Networks,advertising,$42M,USA,Waltham,201 Jones Road,02451,42.375518,-71.272292
Agilis Systems,mobile,$5M,USA,St. Louis,12747 Olive Blvd.,63141,38.681201,-90.471595
Medallia,software,$55M,USA,Palo Alto,395 Page Mill Rd.,94306,37.4520239,-122.1797053
TuneCore,games_video,$7M,USA,Brooklyn,45 Main Street,11201,40.704382,-73.986572
Epic Advertising,,$48M,USA,New York,512 Seventh Avenue,10018,40.753403,-73.989189
Crowd Science,web,$2M,USA,San Jose,1735 Technology Drive,95110,37.419041,-122.087471
Dizzywood,games_video,$2M,USA,,,,37.269175,-119.306607
Deltek,software,$2M,USA,Herndon,13880 Dulles Corner Lane,20171,,
AtTask,enterprise,$37M,USA,Lehi,"3300 Ashton Blvd, #300",84043,,
StartForce,web,$6M,USA,San Francisco,,94109,37.796164,-122.420903
Intelliworks,enterprise,$24M,USA,Bethesda,7315 Wisconsin Avenue,20814,39.116333,-77.181307
BrightSource Energy,cleantech,$845M,USA,Oakland,,,,
Yield Software,advertising,$6M,USA,San Mateo,1700 South Amphlett Blvd.,94402,37.558245,-122.302654
ZPower,cleantech,$123M,USA,Camarillo,4765 Calle Quetzal,93012,34.197333,-119.009054
Sense Networks,mobile,$9M,USA,New York City,1123 Broadway,10010,40.724647,-73.999636
ScreenScape Networks,advertising,$4M,CAN,Charlottetown,133 Queen St.,C1A7K4,46.234315,-63.127845
Practice Fusion,health,$155M,USA,San Francisco,420 Taylor Street,94102,37.7886717,-122.392725
HireVue,web,$53M,USA,South Jordan,10876 South River Front Parkway,84095,40.554467,-111.9137871
Arcadian Networks,cleantech,$90M,USA,Elk River,"12580 192nd Court, NW",55330-5086,45.3200381,-93.5874441
HealthiNation,web,$12M,USA,New York,35 East 21st Street,10010,40.739341,-73.988357
Firefly Energy,cleantech,$31M,USA,Peoria,6533 N. Galena Rd.,61614,40.76652,-89.571813
HomeSphere,software,$2M,USA,Lakewood,1626 Cole Blvd,80401-3306,,
Titan Gaming,games_video,$1M,USA,Santa Monica,"1351 4th Street, 4th floor",90401,53.544711,-113.515769
Stardoll,games_video,$10M,SWE,Stockholm,Hudiksvallsgatan 8,113 30,59.345553,18.037611
Baihe,web,$10M,CHN,Beijing,"Guanghua Road, Chaoyang District",100026,,
LabPixies,web,$1M,ISR,Tel Aviv,,,32.0554,34.7595
Aurora Biofuels,cleantech,$102M,USA,,3325 Investment Boulevard,94545,37.6266932,-122.1169032
Acronis,software,$11M,USA,Burlington,23 3rd Avenue,01803,42.48774,-71.223868
Exinda,software,$19M,USA,Boston,8 Faneuil Hall Market Pl Fl 3,02109-6110,40.617122,-111.858073
eEye,search,$24M,USA,Irvine,111 Theory,92617,33.64214,-117.855539
Trusera,web,$2M,USA,Seattle,2011 East Olive,98122,47.617122,-122.305994
OPENLANE,web,$10M,USA,Redwood City,2200 Bridge Parkway,94065,,
Razz,software,$10M,USA,San Francisco,208 Utah Street,94103,37.766909,-122.406676
HIRO Media,advertising,$5M,ISR,Tel Aviv,,,32.0554,34.7595
SpikeSource,software,$68M,USA,Mountain View,450 Clyde Ave,94043,37.510805,-122.203744
Guruji,search,$15M,IND,Bangalore,"3J,  3rd Cross, 7th 'C' Main",560034,12.937677,77.56574
SensorWave,public_relations,$1M,USA,Carlsbad,6965 El Camino Real 105-101,92009,33.103252,-117.266749
Keibi Technologies,software,$5M,USA,San Francisco,685 Market Street,94105,37.787646,-122.402759
Samba Tech,enterprise,$3M,BRA,Belo Horizonte,"R. Prof. José Vieira de Mendonça, 770",31310-260,-19.815731,-43.954223
Alereon,semiconductor,$73M,USA,Austin,7600 N. Capital of Texas Highway,78731,30.375563,-97.78192
VBS TV,games_video,$10M,USA,Brooklyn,97 North Tenth Street,11211,40.720764,-73.957968
LicenseStream,enterprise,$16M,USA,New York,65 Morton Street,10014,40.7309047,-74.006311
OkCupid,web,$6M,USA,New York,39 W 14th St,10011-7403,40.7368158,-73.9955426
FusionOne,mobile,$6M,USA,San Jose,55 Almaden Blvd.,95113,37.333439,-121.895286
SiSense,analytics,$10M,ISR,Tel Aviv,36 Hanamal st.,,,
Appian,software,$10M,USA,Reston,1875 Explorer Street,20190,38.912827,-77.220028
Cleartrip,travel,$51M,IND,Mumbai,Unit No 001 Ground Fl DTC Bldg Sitaram Mills Compound,400012,18.9978594,72.8367776
Mendix,enterprise,$13M,NLD,Rotterdam,Westzeedijk 487,3024 EL,51.9047086,4.4574464
Fortisphere,software,$10M,USA,Chantilly,4530 Walney Rd,22031,38.87804,-77.436151
Zigabid,web,$1M,USA,La Canada,744 Foothill Blvd,91011,34.208304,-118.209263
thePlatform,web,$8M,USA,Seattle,1000 2nd Avenue,98104,47.617838,-122.356027
Dayak,web,$1M,,,,,,
Samanage,software,$8M,USA,Cary,130 Edinburgh South,27511,,
Funtactix,games_video,$6M,USA,New York,349 5TH AVE,10016,,
Raytheon,security,$3M,USA,Waltham,870 Winter Street,02451,42.4011047,-71.2747563
PeakStream,software,$22M,USA,Redwood City,1600 Bridge Parkway,94065,,
Zingku,,$1M,,,,,,
Searchles,web,$2M,USA,Washington,1150 17th Street NW,20036,38.905327,-77.038897
MetaCarta,mobile,$10M,USA,Cambridge,350 Massachusetts Ave,02139,42.36236,-71.099692
PharmaNation,web,$25M,USA,Princeton,"100 Overlook Center, 2nd Floor",08540,,
Ecrio,mobile,$27M,USA,Cupertino,20450 Stevens Creek Blvd,95014,37.3228,-122.031282
Total Beauty Media,web,$16M,USA,Santa Monica,3420 Ocean Park Blvd,90405,,
BitDefender,software,$7M,USA,Fort Lauderdale,"6301 NW 5th Way, Suite 3500",33309,26.170422,-80.150794
KnowNow,web,$13M,,,,,,
Segway,cleantech,$161M,USA,Bedford,14 Technology Drive,03110,42.928152,-71.45672
Reconnex,software,$16M,USA,Mountain View,201-B Ravendale Drive,94043,37.388072,-122.055975
Milestone Systems,software,$27M,DNK,Banemarksvej 50 G,Milestone Systems A/S,DK-2605,,
9You,games_video,$100M,CHN,Shanghai,6F Harbour Ring Plaza No.18,200001,,
Numedeon,games_video,$1M,USA,Brea,417 Associated Rd,92821,33.9133208,-117.8789031
Lefthand Networks,enterprise,$25M,USA,Boulder,,,,
Nurien Software,software,$25M,,,,,,
SulfurCell,cleantech,$159M,DEU,Berlin,Barbara McClintock,12489,52.432644,13.522974
Ocarina Networks,network_hosting,$20M,USA,San Jose,42 Airport Parkway,95110,37.371056,-121.920558
Datapipe,network_hosting,$487M,USA,Jersey City,10 Exchange Place,07302,40.71644,-74.03392
Spire,network_hosting,$9M,USA,Boston,300 Summer Street,02210,42.350027,-71.049225
ON24,web,$8M,USA,San Francisco,201 3rd Street,94103,37.7850326,-122.4004738
Riot Games,games_video,$8M,USA,Culver City,10736 Jefferson Blvd.,90230,34.0025911,-118.3942383
Streetline,hardware,$40M,USA,San Francisco,49 Stevenson St.,94105,37.782085,-122.409747
Epocrates,software,$35M,USA,San Mateo,1100 Park Place,94403,37.544987,-122.291394
Truviso,analytics,$3M,USA,Foster City,1065 E. Hillsdale Blvd,94404,37.561111,-122.270487
ADP,web,$2M,IND,,,,,
Zhaopin,ecommerce,$110M,CHN,Beijing,"Building A4, Huitong Office Park No.",100025,,
muzu tv,web,$8M,IRL,Dublin,19 South William Street,2,53.341987,-6.262682
Third Age,health,$1M,USA,San Francisco,25 Stillman Street,94107-1309,,
Agitar,software,$10M,USA,Cranston,41 Sharpe Drive,02920,41.7401349,-71.4550207
Dexterra,mobile,$123M,USA,Bothell,21540 30th Dr SE,98021,47.802184,-122.196307
Message Systems,software,$38M,USA,Columbia,7070 Samuel Morse Drive,21046,39.169397,-76.811526
The Electric Sheep,advertising,$7M,USA,New York,25 W. 36th Street,10018,,
Cherwell Software,software,$25M,USA,Colorado Springs,12295 Oracle Boulevard,80921,39.010667,-104.81628
Code71,software,$1M,USA,Glen Allen,4732 Sadler Green Place,23060,37.665173,-77.587267
Hands-On Mobile,mobile,$30M,USA,San Francisco,,,37.775196,-122.419204
Napera Networks,network_hosting,$6M,USA,Bellevue,4957 Lakemont Blvd SE,98006,47.578174,-122.212731
SAVO,software,$44M,USA,Chicago,155 N Wacker Drive,60606,41.87675,-87.640458
Coremetrics,advertising,$91M,USA,San Mateo,1840 Gateway Drive,94404,37.55873,-122.27992
LivingSocial,ecommerce,$935M,USA,Washington D.C.,1445 New York Ave NW,20005,,
Carbonetworks,cleantech,$5M,USA,San Francisco,1700 Montgomery St,94111,37.805289,-122.404448
1C Company,software,$200M,RUS,Moscow,ul. Seleznevskaya 21,123056,,
Douban,web,$59M,CHN,Beijing,Jiuxianqiao,100005,,
Brocade Communications Systems,network_hosting,$300M,USA,San Jose,1901 Guadalupe Pky,95131,37.376066,-121.926678
Buysight,advertising,$24M,USA,Palo Alto,"395 Page Mill Rd, 3rd Floor",94306,37.425359,-122.1389633
SubHub,network_hosting,$1M,GBR,Cardiff,The Studios,CF10 5FZ,,
Ku6,games_video,$40M,CHN,Beijing,,,,
Juniper Networks,security,$102M,USA,Sunnyvale,1194 North Mathilda Avenue,94089-1206,37.409123,-122.025646
Yatra online,travel,$22M,IND,Gurgaon,Gorund Floor Tower A,122001,28.4404308,77.0789194
Moondo,games_video,$6M,,,,,,
iStreamPlanet,games_video,$15M,USA,Las Vegas,6630 West Arby Ave.,89118,36.059658,-115.23671
Crowd Technologies,other,$1M,USA,Los Altos,450 First St.,94022,37.374755,-122.115532
Livebookings,advertising,$63M,DEU,,,,,
Admeld,advertising,$30M,USA,New York,One Madison Ave,10010,40.755253,-73.992152
Roamware,mobile,$14M,USA,San Jose,3031 Tisch Way,95128,37.317799,-121.947497
SpringSource,software,$25M,USA,San Mateo,411 Borel Avenue,CA 94402,,
Telnic,search,$35M,GBR,London,37 Percy Street,W1T 2DJ,51.518107,-0.134078
Six Degrees Games,games_video,$18M,USA,Marina del Rey,4223 Glencoe Boulevard,90292,,
Garena,web,$2M,SGP,Singapore,,,,
BiggerBoat,web,$5M,,,,,,
Airbnb,travel,$326M,USA,San Francisco,888 Brannan Street,94103,,
Covarity,finance,$11M,CAN,Kitchener,2300-30 Duke St. W,N2H 3W5,43.4512353,-80.4892301
AppNexus,advertising,$141M,USA,New York,28 W. 23rd Street,10010,40.7250495,-73.9970912
Dataupia,enterprise,$41M,USA,Cambridge,One Alewife Center,02140,42.3988457,-71.1404961
Xero,software,$244M,NZL,Wellington,3 Market Lane,,,
Pricelock,cleantech,$12M,USA,Redwood City,101 Redwood Shores Parkway,94065,37.518539,-122.254275
GetYourGuide,travel,$16M,CHE,Zurich,GetYourGuide AG,8005,47.3912899,8.5082891
Vantage Media,advertising,$70M,USA,El Segundo,2183 Rosecrans Avenue,90245,33.902696,-118.387511
RadioFrame,mobile,$68M,USA,Redmond,9461 Willows Road NE,98052,47.685626,-122.145808
OZ Communications,software,$34M,CAN,"Montreal, Quebec","Windsor Station, Suite 150",H3B 2S2,45.4965703,-73.5687974
Entone Technologies,hardware,$24M,USA,Cupertino,20863 Stevens Creek Blvd,95014,37.536402,-122.325129
Sharethrough,advertising,$11M,USA,San Francisco,394 Pacific Ave.,94111,37.7976785,-122.4018163
Terapeak,ecommerce,C$5M,CAN,Victoria,3962 Borden Street,V8P 3H8,48.494688,-123.407654
Plastic Logic,other,$196M,DEU,Dresden,An der Bartlake 5,01109,51.12601,13.734177
Paymo,mobile,$5M,USA,San Francisco,300 Broadway Street,94133,37.798684,-122.40264
Canwest,games_video,$24M,CAN,Winnipeg,3100-201 Portage Ave,MB R3B 3L7,,
SpiderOak,web,$2M,USA,Northbrook,555 Huehl Road,60062,42.142261,-87.862305
MyFrontSteps,web,$3M,CAN,Saskatoon,55 -33rd St,S7K 0R8,52.143886,-106.6634565
Veveo,games_video,$14M,USA,Andover,40 Shattuck Road,01810,42.687142,-71.212156
Koolanoo Group,web,$32M,CHN,Beijing,"D/20F, The Place, #9 Guanghua Road",100020,39.905556,116.395833
Recommind,enterprise,$15M,USA,San Francisco,650 California Street,94108,37.796903,-122.404904
MediaVast,,$15M,USA,New York,49 West 27th Street,10001,,
Centrify,network_hosting,$52M,USA,Sunnyvale,785 N. Mary Avenue,94085,37.390918,-122.080843
Likewise Software,software,$10M,USA,Bellevue,15395 SE 30th Place,98007,47.582658,-122.135282
Koofers,education,$7M,USA,Blacksburg,,24060,37.2322135,-80.4164606
Stack Exchange,software,$18M,USA,New York,55 Broadway 26 FL,10006,,
Varolii,software,$11M,USA,Seattle,821 Second Avenue,98104,47.604242,-122.334448
Deeya Energy,cleantech,$15M,USA,Fremont,48611 Warm Springs Blvd,94539,,
NexPlanar,semiconductor,$43M,USA,Hillsboro,7425 NW Evergreen Parkway,97124,45.546481,-122.9021288
Petra Solar,cleantech,$40M,USA,South Plainfield,300-G Corporate Court,07080,,
sliceX,enterprise,$15M,USA,San Jose,"2001 Gateway Place, 610 West",95110,37.3706126,-121.9219538
CyOptics,semiconductor,$77M,USA,Breinigsville,9999 Hamilton Blvd.,18031,,
Sequoia Communications,semiconductor,$74M,USA,San Diego,"15050 Avenue of Science, Suite 100",92128,32.988247,-117.080769
ZManda,software,$13M,USA,Sunnyvale,465 S. Mathilda Ave,94086,37.3725243,-122.035963
Availink,semiconductor,$14M,USA,Germantown,20201 Century Boulevard,20874,,
Advasense,semiconductor,$24M,ISR,Ra'anana,5 Hayetzira Street,43663,,
bTendo,hardware,$7M,ISR,Kfar Saba,17 Atir Yeda St.,44643,,
SiliconBlue Technologies,semiconductor,$57M,USA,Santa Clara,3255 Scott Blvd.,95054,,
AxisMobile,mobile,$3M,ISR,Tel-Aviv,32 Habarzel Street,69710,,
Palo Alto Networks,security,$329M,USA,Santa Clara,3300 Olcott Street,95054,37.410439,-122.016125
travelmob,travel,$1M,SGP,Singapore,71 Ayer Rajah Crescent,139951,21.303049,-157.78907
Onehub,enterprise,$3M,USA,Seattle,105 S Main Street,98104,47.580235,-122.145038
Dayjet,other,$50M,,,,,,
Voxeo,network_hosting,$9M,USA,Orlando,189 South Orange Avenue #1000,32801,,
NitroSecurity,security,$25M,USA,Portsmouth,230 Commerce Way,03801,43.093886,-70.784798
ReTel Technologies,analytics,$1M,USA,San Francisco,,94105,41.78942,-87.596232
Trilliant,hardware,$146M,USA,Redwood City,1100 Island Drive,94065,37.535876,-122.257331
Webroot,security,$108M,USA,Broomfield,385 Interlocken Crescent Blvd,80021,40.02644,-105.2247774
MESoft,software,$6M,USA,Los Angeles,3575 Cahuenga Boulevard West,90068-1341,,
PPTV,games_video,$287M,CHN,Shanghai,Shanghai Zhangjiang Hi-Tech Park,20000,,
Demandbase,analytics,$33M,USA,San Francisco,301 Howard Street,94105,37.796843,-122.400346
Jumptap,mobile,$122M,USA,Boston,155 Seaport Blvd,02210,42.368633,-71.075305
Tonchidot,mobile,$16M,JPN,Tokyo,"2-5-12, Shinjuku",160-0022,,
AdRocket,advertising,$1M,USA,San Francisco,,,37.775196,-122.419204
VideoSurf,hardware,$28M,USA,San Mateo,400 S. El Camino Real,94402,37.561877,-122.325248
Yammer,enterprise,$142M,USA,San Francisco,1355 Market St,94103,37.776246,-122.4179223
Global Crossing,public_relations,$41M,BMU,Hamilton,Wessex House,HM 12,,
TRUECar,transportation,$352M,USA,Santa Monica,225 Santa Monica Blvd.,90401,34.0152942,-118.4965479
Tweegee,games_video,$3M,ISR,Ramat Gan,B.S.R 1,,32.037363,34.8003705
Telespree,software,$1M,USA,San Francisco,185 Berry Street,,37.777092,-122.391011
ConnectSolutions,enterprise,$10M,USA,San Francisco,731 Market Street,94103,37.580093,-122.347745
3scale,enterprise,$5M,ESP,Barcelona,"C/Napols 187, 8",08013,41.406335,2.192023
Pressmart,web,$6M,USA,Irvine,980 Roosevelt,92620,33.69361,-117.765492
Lolapps,web,$4M,USA,San Francisco,116 New Montgomery,94105,37.7870923,-122.3999719
Stylesight,fashion,$26M,USA,NEW YORK,25 W. 39TH STREET,10018,40.730763,-74.000827
Plastyc,finance,$2M,USA,New York,55 Broad Street,10004,,
Chegg,education,$252M,USA,Santa Clara,,,37.352313,-121.967982
Hangout Industries,games_video,$12M,USA,Boston,110 Chauncy Street,02111,42.352835,-71.0609612
InnerRewards,ecommerce,$1M,USA,San Francisco,731 Market Street,94103,37.78691,-122.404403
Finjan,enterprise,$32M,USA,New York,122 East 42nd Street,10168,37.37027,-121.924053
Inadco,advertising,$17M,USA,Palo Alto,445 Sherman Avenue,94306,41.889832,-87.626718
Koolanoo Group,web,$32M,CHN,Beijing,"D/20F, The Place, #9 Guanghua Road",100020,39.905556,116.395833
Recommind,enterprise,$15M,USA,San Francisco,650 California Street,94108,37.796903,-122.404904
MediaVast,,$15M,USA,New York,49 West 27th Street,10001,,
Centrify,network_hosting,$52M,USA,Sunnyvale,785 N. Mary Avenue,94085,37.390918,-122.080843
Likewise Software,software,$10M,USA,Bellevue,15395 SE 30th Place,98007,47.582658,-122.135282
Koofers,education,$7M,USA,Blacksburg,,24060,37.2322135,-80.4164606
Stack Exchange,software,$18M,USA,New York,55 Broadway 26 FL,10006,,
Varolii,software,$11M,USA,Seattle,821 Second Avenue,98104,47.604242,-122.334448
Deeya Energy,cleantech,$15M,USA,Fremont,48611 Warm Springs Blvd,94539,,
NexPlanar,semiconductor,$43M,USA,Hillsboro,7425 NW Evergreen Parkway,97124,45.546481,-122.9021288
Petra Solar,cleantech,$40M,USA,South Plainfield,300-G Corporate Court,07080,,
sliceX,enterprise,$15M,USA,San Jose,"2001 Gateway Place, 610 West",95110,37.3706126,-121.9219538
CyOptics,semiconductor,$77M,USA,Breinigsville,9999 Hamilton Blvd.,18031,,
Sequoia Communications,semiconductor,$74M,USA,San Diego,"15050 Avenue of Science, Suite 100",92128,32.988247,-117.080769
ZManda,software,$13M,USA,Sunnyvale,465 S. Mathilda Ave,94086,37.3725243,-122.035963
Availink,semiconductor,$14M,USA,Germantown,20201 Century Boulevard,20874,,
Advasense,semiconductor,$24M,ISR,Ra'anana,5 Hayetzira Street,43663,,
bTendo,hardware,$7M,ISR,Kfar Saba,17 Atir Yeda St.,44643,,
SiliconBlue Technologies,semiconductor,$57M,USA,Santa Clara,3255 Scott Blvd.,95054,,
AxisMobile,mobile,$3M,ISR,Tel-Aviv,32 Habarzel Street,69710,,
Palo Alto Networks,security,$329M,USA,Santa Clara,3300 Olcott Street,95054,37.410439,-122.016125
travelmob,travel,$1M,SGP,Singapore,71 Ayer Rajah Crescent,139951,21.303049,-157.78907
Onehub,enterprise,$3M,USA,Seattle,105 S Main Street,98104,47.580235,-122.145038
Dayjet,other,$50M,,,,,,
Voxeo,network_hosting,$9M,USA,Orlando,189 South Orange Avenue #1000,32801,,
NitroSecurity,security,$25M,USA,Portsmouth,230 Commerce Way,03801,43.093886,-70.784798
ReTel Technologies,analytics,$1M,USA,San Francisco,,94105,41.78942,-87.596232
Trilliant,hardware,$146M,USA,Redwood City,1100 Island Drive,94065,37.535876,-122.257331
Webroot,security,$108M,USA,Broomfield,385 Interlocken Crescent Blvd,80021,40.02644,-105.2247774
MESoft,software,$6M,USA,Los Angeles,3575 Cahuenga Boulevard West,90068-1341,,
PPTV,games_video,$287M,CHN,Shanghai,Shanghai Zhangjiang Hi-Tech Park,20000,,
Demandbase,analytics,$33M,USA,San Francisco,301 Howard Street,94105,37.796843,-122.400346
Jumptap,mobile,$122M,USA,Boston,155 Seaport Blvd,02210,42.368633,-71.075305
Tonchidot,mobile,$16M,JPN,Tokyo,"2-5-12, Shinjuku",160-0022,,
AdRocket,advertising,$1M,USA,San Francisco,,,37.775196,-122.419204
VideoSurf,hardware,$28M,USA,San Mateo,400 S. El Camino Real,94402,37.561877,-122.325248
Yammer,enterprise,$142M,USA,San Francisco,1355 Market St,94103,37.776246,-122.4179223
Global Crossing,public_relations,$41M,BMU,Hamilton,Wessex House,HM 12,,
TRUECar,transportation,$352M,USA,Santa Monica,225 Santa Monica Blvd.,90401,34.0152942,-118.4965479
Tweegee,games_video,$3M,ISR,Ramat Gan,B.S.R 1,,32.037363,34.8003705
Telespree,software,$1M,USA,San Francisco,185 Berry Street,,37.777092,-122.391011
ConnectSolutions,enterprise,$10M,USA,San Francisco,731 Market Street,94103,37.580093,-122.347745
3scale,enterprise,$5M,ESP,Barcelona,"C/Napols 187, 8",08013,41.406335,2.192023
Pressmart,web,$6M,USA,Irvine,980 Roosevelt,92620,33.69361,-117.765492
Lolapps,web,$4M,USA,San Francisco,116 New Montgomery,94105,37.7870923,-122.3999719
Stylesight,fashion,$26M,USA,NEW YORK,25 W. 39TH STREET,10018,40.730763,-74.000827
Plastyc,finance,$2M,USA,New York,55 Broad Street,10004,,
Chegg,education,$252M,USA,Santa Clara,,,37.352313,-121.967982
Hangout Industries,games_video,$12M,USA,Boston,110 Chauncy Street,02111,42.352835,-71.0609612
InnerRewards,ecommerce,$1M,USA,San Francisco,731 Market Street,94103,37.78691,-122.404403
Finjan,enterprise,$32M,USA,New York,122 East 42nd Street,10168,37.37027,-121.924053
Inadco,advertising,$17M,USA,Palo Alto,445 Sherman Avenue,94306,41.889832,-87.626718
nCircle Network Security,software,$6M,USA,San Francisco,101 Second Street,94105,,
FetchBack,advertising,$1M,USA,Tempe,100 W University Drive,85281,33.426418,-111.9396
Idiro,software,$2M,IRL,,,,,
Buzzd,mobile,$4M,USA,New York,833 Broadway,10003,40.733928,-73.991334
Aruba Networks,,$45M,USA,Sunnyvale,1344 Crossman Ave.,94089-1113,37.412876,-122.008583
DealBase Corporation,web,$1M,USA,Manhattan Beach,1112 Ocean Drive,90266,37.5758867,-122.3277578
Cliqset,web,$2M,USA,Jacksonville,1450 Flagler Avenue,32207,30.310978,-81.657707
Metranome,mobile,$2M,CAN,Waterloo,515 Dotzert Ct #5,N2L 6A7,43.494754,-80.530888
Streamline Alliance,other,$1M,USA,,5039 Central Avenue,337108240,27.770937,-82.701882
OnVantage,software,$18M,USA,Santa Clara,3920 Freedom Circle,95054,,
Brightstorm,games_video,$6M,USA,San Francisco,"685 Market St. Street, Suite 270",94105,37.804619,-122.371203
Unigo,education,$2M,USA,New York,21 West 46th Street,10036,40.7568493,-73.9793465
Hollywood Interactive Group,web,$5M,USA,Los Angeles,,,34.052187,-118.243425
Infinity Pharmaceuticals,biotech,$156M,USA,Cambridge,780 Memorial Drive,02139,,
World Golf Tour,sports,$21M,USA,San Francisco,,94104,,
Microstaq,hardware,$17M,USA,Austin,4150 Freidrich Ln # A,78744,30.212566,-97.748221
Lifeblob,web,$1M,,,,,,
Cramster,web,$9M,USA,Pasadena,141 S Lake Ave,91101,34.147047,-118.148896
Bloglovin,web,$1M,SWE,Stockholm,,,,
Right90,software,$22M,USA,Foster City,4100 E. Third Ave,94404,37.571318,-122.267962
Sensicore,cleantech,$12M,,,,,,
Radio One Llama,games_video,$1M,USA,Champaign,,,40.1128,-88.271074
PCH International,hardware,$77M,CHN,Shenzen,"Block D&E, 4/F, Du Shi Ming Yuan",518010,,
Current Communications Group,web,$113M,USA,"Germantown,",20420 Century Boulevard,20874,39.193953,-77.266168
kankan,web,$5M,CHN,ShenZhen,High Tech Industrial Park South Region,518057,,
GeoCities,network_hosting,$40M,,,,,,
Radionomy,music,$6M,BEL,Brussels,Boulevard International 55 K,1070,50.831147,4.33511
Lucky Pai,ecommerce,$40M,CHN,Shanghai,,,,
MyShape,ecommerce,$28M,USA,Glendale,210 W. Lexington Drive,91203,34.141876,-118.132377
Kodiak Networks,mobile,$15M,USA,Plano,1501 10th Street,75074,33.012646,-96.692498
PlumChoice,consulting,$92M,USA,Billerica,5 Federal Street,01821,42.542356,-71.279966
Avaak,mobile,$17M,USA,San Diego,9645 Scranton Road,92121,32.897274,-117.201076
Mindjet,software,$15M,USA,San Francisco,1160 Battery Street East,94111,50.095312,9.049981
MXP4,games_video,$17M,FRA,Paris,54 Rue Paradis,75010,,
Reuters Real Estate,real_estate,$5M,,,,,,
PropertyBridge,software,$2M,USA,Oakland,475 14th Street,94612,,
Sailthru,public_relations,$48M,USA,New York,160 Varick St.,10013,40.738143,-74.008159
eriQoo,search,$40M,JPN,Tokyo,Roppongi 4-4-3-33,106-0032,,
SolFocus,cleantech,$211M,USA,San Jose,1841 Zanker Road,95112,37.3987372,-122.0497918
Netcontinuum,software,$15M,USA,Santa Clara,1705 Wyatt Drive,95054,,
Entellium,enterprise,$50M,MYS,Kuala Lumpur,,,3.15021,101.707703
ExactTarget,software,$246M,USA,Indianapolis,20 North Meridian Street,46204,39.7672093,-86.1580785
Viximo,web,$5M,USA,Cambridge,1 Camp Street,02140,42.398424,-71.130297
Siri,software,$24M,USA,San Jose,,,37.320052,-121.877636
Cloudera,enterprise,$141M,USA,Palo Alto,220 Portage Ave,94306,37.5783417,-122.3497546
Vuclip,photo_video,$27M,USA,Milpitas,1551 McCarthy Boulevard,95035,37.406027,-121.918642
Replicon,enterprise,$20M,CAN,"Calgary, Alberta",910 - 7th Avenue SW,T2P-3N8,,
ResearchGate,social,$35M,DEU,Berlin,Invalidenstr. 115,10115,52.5308516,13.3842605
MX Logic,security,$4M,USA,Englewood,9781 South Meridian Boulevard,80112,39.540323,-104.857271
Websense,software,$18M,USA,San Diego,10240 Sorrento Valley Rd,92121,32.890757,-117.211026
Apigee,enterprise,$107M,USA,Palo Alto,260 Sheridan Avenue,94306,37.369445,-121.967223
Webtab,mobile,$2M,USA,San Francisco,847 Sansome Street,94111,,
SolarCity,cleantech,$789M,USA,San Mateo,3055 Clearview Way,94402,37.563039,-122.277639
GotGame,games_video,$1M,USA,San Francisco,1 Bluxome Place,94107,37.77772,-122.395785
ReverbNation,software,$5M,USA,Durham,115 N Duke St.,27701,36.002893,-78.904075
Wishabi,ecommerce,$16M,CAN,Toronto,302 The East Mall,M9B 6C7,43.644678,-79.567221
Softricity,software,$15M,USA,Boston,27 Melcher Street,02210,,
Whale Communications,software,$15M,USA,Fort Lee,400 Kelby Street,07024,,
ClickShift,software,$6M,USA,San Bruno,1111 Bayhill Drive,94066,,
Emotive Communications,enterprise,$14M,USA,San Francisco,345 California Street,94104,,
Games2Win,games_video,$13M,IND,"Tardeo,Mumbai","42, Film Center,",,18.9742904,72.8127265
Dukky,analytics,$1M,USA,Mandeville,1200 West Causeway Approach,70471,29.973994,-90.082202
A10 Networks,network_hosting,$118M,USA,San Jose,3 W Plumeria Drive,95134,37.391198,-121.93393
SocialGO,social,$3M,GBR,London,Lyon House,SE1 1LB,51.5027669,-0.0925694
Ozone Media Solutions,web,$4M,IND,Mumbai,,,19.017656,72.856178
Diffbot,analytics,$2M,USA,Palo Alto,395 Page Mill Rd,94306,,
Netviewer,software,$24M,DEU,Karlsruhe,Erzbergerstrasse 17,76133,40.874708,-74.050836
RadarFind,mobile,$2M,USA,Morrisville,2100 Gateway Centre Blvd.,27560,35.8455929,-78.8012482
Newmerix,software,$7M,USA,Superior,1100 South McCaslin Blvd.,80027,39.944003,-105.16519
LucidLogix Technologies,software,$40M,ISR,Kfar Netter,Kfar Netter Industrial Park,40593,,
ObserveIT,security,$20M,ISR,Tel Aviv,"Kiriat Atidim, 7",69719,,
Next Jump,ecommerce,$45M,USA,New York,261 Fifth Avenue,10016,40.7451545,-73.9869549
VideoPros,consulting,$1M,,,,,,
JamLegend,games_video,$2M,,,,,,
First Solar,cleantech,$428M,USA,Tempe,,,,
Ketera,,$14M,USA,San Jose,"3055 Olin Avenue, Suite 2200",95128,,
TRX Systems,software,$2M,USA,Greenbelt,"7500 Greenway Center Dr.,",20770,38.9916581,-76.879257
kidthing,ecommerce,$3M,USA,Los Angeles,701 E. 3rd Street,90013,34.045845,-118.237811
Verismo Networks,games_video,$17M,USA,Mountain View,1451 Grant Road #200,94040,37.3874345,-122.051793
SLI Systems,web,$1M,USA,San Jose,333 W. San Carlos St.,95110,37.3183744,-122.0302814
Lookout,security,$131M,USA,San Francisco,One Front St,94111,,
GlobalCrypto,software,$1M,USA,Atlanta,75 5th Street NW,30308,33.776834,-84.3895875
Flipswap,mobile,$14M,USA,Torrance,21250 Hawthorne Blvd,90503,,
Cassatt,software,$15M,USA,San Jose,1740 Technology Drive,95110,,
Illumix Software,software,$3M,GBR,Guildford,Surrey Technology Centre,GU2 7YG,,
SpiceCSM,enterprise,$1M,USA,Potsdam,51 Main St,13676,44.6686534,-74.9822149
Autotask,software,$6M,USA,East Greenbush,26 Tech Valley Drive,12061,,
One True Media,games_video,$14M,USA,Redwood City,955 - A Charter Street,94063,37.485824,-122.212095
As It Is,network_hosting,$3M,USA,Buffalo,1231 Delaware Ave,14209,42.917329,-78.867993
Geomagic,software,$8M,USA,Durham,3200 East Hwy 54,27709,35.8962338,-78.8733184
Wild Brain,consulting,$30M,USA,Los Angeles,9150 Wilshire Ave,90212,34.064286,-118.372638
KIXEYE,games_video,$19M,USA,San Francisco,333 Bush Street,94104,,
Kynetx,software,$2M,USA,Lehi,3098 Executive Parkway,84043,40.4273613,-111.8967224
Twilio,enterprise,$104M,USA,San Francisco,"645 Harrison, 3rd Floor",94107,37.7898499,-122.4006831
Attenex,software,$5M,USA,Seattle,925 Fourth Avenue,98104-1125,,
Actus Digital,news,$2M,ISR,Tel-Aviv,24 Raoul Wallenberg St.,69419,,
Exanet,other,$18M,ISR,Ra'anana,4 Hacharoshet Street,43657,,
Clear Standards,cleantech,$4M,USA,Sterling,21335 Signal Ave,20164,39.024958,-77.389687
Zuberance,advertising,$12M,USA,San Carlos,628 El Camino Real,94070,37.506475,-122.259932
Darkstrand,software,$12M,,,,,,
LogMeIn,software,$20M,USA,Woburn,500 Unicorn Park Drive,01801,42.486535,-71.115413
Synthesio,software,$2M,GBR,London,50 Featherstone Street,EC1Y 8RT,,
LoopNet,ecommerce,$50M,USA,San Francisco,185 Berry Street,94107,37.7759421,-122.3931139
Fanminder,advertising,$1M,USA,San Francisco,625 Second Street,94107,37.3792486,-122.1151274
Virtual Bridges,software,$4M,USA,Austin,6300 Bridge Point Parkway,78730,30.27995,-97.807274
Baofeng,software,$15M,,,,,,
Canpages,search,$110M,CAN,British Columbia,One Innovation Place 2700,V5A 0C2,49.2599284,-122.9153695
hybris,enterprise,$30M,DEU,Muenchen,Nymphenburger Str. 86,80636,,
Air2Web,mobile,$25M,IND,Atlanta,"3424 Peachtree Street, N.E.",30326,,
Perfect Commerce,software,$30M,USA,Newport News,One Compass Way,23606,,
Azuro,semiconductor,$10M,USA,Santa Clara,5201 Great America Parkway,95054,37.406217,-121.976473
AppLabs,software,$10M,IND,Hyderabad,"Plot No. 83 & 84, Road # 2",500034,44.6672372,4.7694829
FeedHenry,enterprise,$9M,IRL,Waterford,ArcLabs Research & Innovation Building,Waterford,,
Ridemakerz,ecommerce,$23M,USA,Saint Louis,1930 Innerbelt Business Center Drive,63114,38.691084,-90.354532
Tableau Software,software,$15M,USA,Seattle,837 North 34th Street,98103,47.6504518,-122.3545086
Apprenda,enterprise,$31M,USA,Clifton Park,3 Corporate Drive,12065,42.856515,-73.782775
Vontu,software,$20M,USA,San Francisco,475 Sansome Street,94111,,
Total Prestige,network_hosting,$1M,,,,,,
StillSecure,security,$5M,USA,Superior,100 Superior Plaza Way,80027,39.956329,-105.164002
Rambus,semiconductor,$289M,USA,Los Altos,4440 El Camino Real,94022,,
OpSource,network_hosting,$49M,USA,Santa Clara,5201 Great America Parkway,95054,37.406217,-121.976473
Soma Networks,network_hosting,$51M,USA,San Francisco,650 Townsend Street,94103,37.7710402,-122.4026325
YieldBuild,advertising,$6M,USA,San Francisco,95 Minna St,94105-3029,37.7877967,-122.3989376
Ekahau,web,$22M,USA,Reston,1851 Alexander Bell,20191,37.2808523,-122.0031531
Modelinia,web,$5M,USA,New York,"915 Broadway,",10010,40.739867,-73.990024
SheZoom,network_hosting,$2M,USA,New York,335 Madison Avenue,10017,40.7538639,-73.9785086
Altierre,mobile,$60M,USA,San Jose,1980 Concourse Dr.,95131,37.3968262,-121.8957166
Novafora,software,$12M,USA,San Jose,2460 N 1st Street,,,
ScienceLogic,software,$30M,USA,Reston,10700 Parkridge Blvd.,20191,,
Clikthrough,software,$2M,USA,San Francisco,414 Jackson St.,94111,37.7965781,-122.4022856
SolarWinds,software,$218M,USA,Austin,3711 South MoPac Expressway,78746,30.245535,-97.805621
Manthan Systems,analytics,$47M,IND,Bangalore,"40/4 Lavelle Road,",560001,12.9708947,77.5976747
Radiance,network_hosting,$26M,,,,,,
e-Rewards,ecommerce,$60M,USA,,5800 Tennyson Parkway,Texas 75024,,
Alien Technology,semiconductor,$212M,USA,Morgan Hill,18220 Butterfield Blvd.,95037,37.141879,-121.655715
eBillme,ecommerce,$23M,USA,Rye Brook,"800 Westchester Ave.,",10573,,
Oberon Media,games_video,$36M,USA,New York,100 Broadway,10005,,
Mobilygen,semiconductor,$10M,USA,Santa Clara,2900 Lakeside Drive,95054,,
Green Apple Media,web,$132M,IRL,Dublin,14 - 16 Lord Edward St,D2,53.3438298,-6.2689465
Rudder,web,$2M,USA,Houston,3939 Essex Lane,77027,29.739322,-95.444747
eSpace,software,$2M,EGY,Alexandria,"2 Saint Genny Street, Kafr Abdou",,,
Envivio,software,$59M,USA,San Francisco,"400 Oyster Point Blvd., Suite 325",94080,37.665469,-122.38222
CouponCabin,web,$54M,USA,Whiting,,46394,42.052004,-88.144397
Hanger Network In-Home Media,advertising,$18M,USA,New York,1841 Broadway,10023,40.769375,-73.982635
JazzD Markets,web,$8M,USA,Ephrata,P.O. Box 458,17522-0458,40.1759417,-76.1667807
Altor Networks,security,$16M,USA,Redwood City,"350 Bridge Parkway, Suite 6",94065,37.530327,-122.257222
UiTV,public_relations,$15M,,,,,,
NTRglobal,enterprise,$34M,ESP,Barcelona,Diagonal Litoral,08019,,
N-Trig,hardware,$104M,ISR,Kfar Saba,"15 Atir Yeda Street, 2nd Floor",44643,,
RGB Networks,games_video,$52M,USA,Sunnyvale,390 West Java Drive,94089,37.4123706,-122.0216271
MyOtherDrive,games_video,$1M,USA,Dayton,130 W 2nd Street,45402,39.7605421,-84.1949463
Anystream,software,$59M,USA,Dulles,21000 Atlantic Boulevard,20166,39.035298,-77.430125
Aconex,software,$85M,AUS,Melbourne,96 Flinders Street,3000,-37.8161164,144.9715423
Conviva,software,$59M,USA,San Mateo,Two Waters Park Drive,94403,37.552806,-122.2916021
Vangard Voice Systems,enterprise,$5M,USA,Irvine,"9940 Research Drive,",92618,33.6298904,-117.7269415
Robotgalaxy,games_video,$12M,USA,New York,"41 Union Square West,",10003,40.737216,-73.990947
Klout,social,$40M,USA,San Francisco,77 Stillman St.,94103,34.0497638,-118.2474287
MT DIGITAL MEDIA,web,$32M,GBR,"Brentford , Middlesex",1000 Great West Road,TW8 9HH,,
Proofpoint,software,$59M,USA,Sunnyvale,892 Ross Drive,94089,37.400751,-122.031591
Highwinds,software,$312M,USA,Winter Park,807 W. Morse Boulevard,32789,28.597741,-81.3593329
Conject,software,$5M,DEU,Munich,ImplerstraÃŸe 11,,48.122962,11.5485907
IMT (Innovative Micro Technology),biotech,$22M,USA,Santa Barbara,75 robin hill road,93117,34.4356217,-119.8462682
Smart Destinations,travel,$13M,USA,Boston,"85 Merrimac Street,",02114,42.363496,-71.0613671
PixelFish,advertising,$8M,USA,Hawthorne,21250 Hawthorne Blvd,90503,33.84406,-118.322959
JAZD Markets,advertising,$8M,USA,Andover,"3 Dundee Park, Suite 102",01810,42.6555302,-71.1455618
Virident Systems,enterprise,$130M,USA,Milpitas,"500 E Yosemite Drive,",95035-5444,37.421692,-121.894156
Silver Spring Networks,network_hosting,$284M,USA,Redwood City,575 Broadway Street,94063,37.4858629,-122.2067269
3Leaf,software,$65M,USA,Santa Clara,3255-1 Scott Blvd.,95054,37.381034,-121.971487
ChinaCache,network_hosting,$32M,CHN,Beijing,"Section A, Building 3, Dian Tong Creative Square, No.7",100015,,
Sennari,software,$17M,USA,Los Angeles,12950 Culver Boulevard,90066,33.9782287,-118.4303427
Magix,web,$155M,USA,Reno,1105 Terminal Way #202,89502,39.5148219,-119.7774302
WageWorks,consulting,$20M,USA,San Mateo,"1100 Park Place, 4th Floor",94403,37.458501,-122.432846
LV Sensors,hardware,$15M,,,,,,
Hammerhead Systems,hardware,$48M,USA,Mountain View,640 Clyde Court,94043,37.40006,-122.049689
Kaazing,enterprise,$37M,USA,Mountain View,444 Castro Street,94041,37.3941256,-122.0797269
Viva Vision,web,$2M,USA,San Diego,10171 Pacific Mesa Blvd.,92121,32.903231,-117.188987
Better Place,cleantech,$836M,USA,Palo Alto,"1070 Arastradero Road,",94304,37.3949615,-122.1425097
Laurus Energy,cleantech,$9M,,,,,,
NanoOpto,hardware,$17M,USA,Somerset,22 Victoria Street,08873-5117,40.4502734,-74.5299854
Tachyon Networks,hardware,$11M,USA,San Diego,9339 Carroll Park Drive #150,92121,32.88791,-117.176096
WildBlue,web,$50M,USA,Englewood,P.O. Box 4427,80155,39.6478,-104.9875
Jentro Technologies,mobile,$29M,DEU,Munich,Rosenheimer Strasse 145e,81671,,
DCITS,network_hosting,$73M,IND,The Nilgiris. Tamil Nadu,"#117/1,117/2,",643 001,,
AVA Solar,cleantech,$104M,USA,Loveland,2695 Rocky Mountain Avenue,80538,40.4182087,-105.0002597
Packet Island,software,$2M,USA,Cupertino,"10080 N. Wolfe Rd,",95014,37.323991,-122.012882
Jasper Wireless,mobile,$155M,USA,Mountain View,"Jasper Wireless, Inc",94043,37.394392,-122.04221
Iken Solutions,software,$2M,IND,"Powai, Mumbai - 400 076","CM-5, Third Floor, SINE, CSRE Building",,,
DigiMeld,web,$2M,USA,New York,"134 W.37th St., 2nd Fl.",10018,,
VoloMedia,advertising,$12M,USA,Sunnyvale,800 W. California Ave.,94086,37.382376,-122.037607
Dragonfly,web,$3M,USA,New York,,,40.756054,-73.986951
Applied Identity,advertising,$33M,USA,San Francisco,456 Montgomery,94104,,
Zenda Technologies,biotech,$3M,USA,Roswell,1210 Ridgefield Dr,30075,34.015986,-84.388934
ReCellular,mobile,$15M,USA,Ann Arbor,2300 Traverwood Drive,48105,42.306097,-83.714222
Tetraphase Pharmaceuticals,biotech,$60M,USA,Watertown,"480 Arsenal Street,",02472,42.3630235,-71.158939
Kickfire,software,$20M,USA,Santa Clara,2055 Laurelwood Road,95054,37.381876,-121.95993
Zero2IPO,web,$60M,CHN,Beijing,"202/03,Tower A,Eagle Run Plaza,No.26,Xiao Yun Road",100125,,
Spring Mobile Solutions,mobile,$101M,USA,Seattle,2505 2nd Avenue,98121,47.6154389,-122.3479567
Silverpop,advertising,$40M,USA,Atlanta,200 Galleria Parkway,30339,33.882526,-84.4655151
Geosign,web,$160M,,,,,,
RingCube Technologies,software,$26M,USA,Mountain View,100 W Evelyn Ave.,94041,37.3915589,-122.0702643
Meru Networks,mobile,$164M,USA,Sunnyvale,894 Ross Drive,94089,37.400867,-122.033281
Transera Communications,software,$37M,USA,Sunnyvale,"1195 W. Fremont Avenue, Suite 101",94087,37.3521697,-122.0622892
Rohati Systems,software,$11M,USA,Sunnyvale,1192 Borregas Avenue,94089,37.4071848,-122.0194922
Rage Frameworks,enterprise,$15M,USA,Westwood,200 Lowder Brook Drive,02090,,
Cognitive Networks,network_hosting,$6M,USA,San Francisco,1663 Mission Street,94103,,
Videonline Communications,web,$12M,USA,Redwood City,656 Bair Island Rd.,94063,37.495996,-122.223273
Achievo(R) Corporation,software,$24M,USA,San Ramon,2633 Camino Ramon Ste 100,94583-2539,37.7662,-121.95812
Cortina Systems,hardware,$162M,USA,Sunnyvale,1376 Bordeaux Drive,94089,37.38153,-122.037823
Aquest Systems,hardware,$20M,USA,Sunnyvale,683 West Maude Avenue,94085,37.390956,-122.032795
Mu Dynamics,network_hosting,$24M,USA,Sunnyvale,686 W. Maude Avenue,94085,37.390233,-122.033741
Paylocity,software,$10M,USA,Arlington Heights,3850 N. Wilke Road,60004,,
BA Systems,hardware,$10M,USA,Sunnyvale,"# 1270 Oakmead Pkwy Suite 215,",94085,37.3868616,-121.9917771
ECI Telecom,network_hosting,$173M,USA,Ft. Lauderdale,5100 NW 33rd Avenue,33309,26.1875706,-80.1912988
Veraz Networks,web,$10M,USA,Ft. Lauderdale,"5100 NW 33rd Avenue,",33309,26.1875706,-80.1912988
Aperto Networks,mobile,$158M,USA,Milpitas,598 Gibraltar Drive,95035,37.416183,-121.890252
Achronix Semiconductor,semiconductor,$136M,USA,San Jose,333 West San Carlos Street,95110,37.328686,-121.89426
Intellon Corporation,semiconductor,$18M,USA,Ocala,5100 West Silver Springs Blvd.,34482,29.1866439,-82.2046985
NetDevices,software,$25M,USA,Sunnyvale,580 North Pastoria Avenue,94085,,
Double Fusion,web,$59M,USA,San Francisco,"300 Beale Street,",94105,37.7887135,-122.3927145
Aicent,mobile,$145M,USA,San Jose,181 Metro Drive,95110,37.384211,-121.924797
5th Finger,mobile,$7M,USA,San Francisco,222 Sutter St Suite 450,94108,37.7900992,-122.4021988
SourceLabs,enterprise,$7M,USA,Seattle,411 First Ave S.,98104,47.5990443,-122.3342758
Pano Logic,software,$38M,USA,Menlo Park,"1350 Willow Road, Suite 202",94025,37.477037,-122.15164
NextG Networks,mobile,$410M,USA,Milpitas,890 Tasman Drive,95035,37.3968078,-121.9113633
Desi Hits,web,$5M,,,,,,
SmartTurn,advertising,$5M,USA,San Francisco,177 Fremont St.,94105,37.789801,-122.395327
Exeros,software,$12M,USA,Santa Clara,2953 Bunker Hill Lane,95054,,
Initiate Systems,enterprise,$31M,USA,Chicago,200 West Madison Street,60606,41.882301,-87.634311
Siperian,software,$25M,USA,Foster City,100 Foster City Blvd.,94404,37.569181,-122.276512
Tudou,games_video,$126M,CHN,,,,,
Tendril,software,$111M,USA,Boulder,1580 55th St,80301,40.026422,-105.228284
SpongeFish,web,$2M,USA,San Francisco,"599 3rd St,",94107,37.7800788,-122.3943096
SundaySky,software,$37M,USA,New York,242 W. 27th ST,10001,,
PSS Systems,legal,$23M,USA,Mountain View,"2525 E Charleston Road,",94043,37.4216866,-122.0984543
G10 Entertainment,games_video,$38M,,,,,,
MediaXstream,,$10M,USA,Summit,"35 Beechwood Drive, Suite 2D",07901,40.7183693,-74.3575421
Azalea Networks,network_hosting,$15M,USA,Milpitas,"673 S. Milpitas Blvd,",95035,37.423135,-121.894792
ScaleMP,software,$8M,USA,Cupertino,20863 Stevens Creek Blvd.,95014,37.3229727,-122.0385792
MarketTools,enterprise,$83M,USA,,150 Spear Street,94105,,
Nangate,mobile,$35M,USA,Sunnyvale,"155-A Moffett Park Drive,",94089-1321,37.4043966,-122.0213965
Wazoo Sports,games_video,$2M,USA,London,P.O. Box 3289,40743,37.1286,-84.0834
AdChina,advertising,$10M,CHN,Shanghai,"20th Floor, Jing An Media Zone , No.211 Shi Men Yi Road",200041,,
Optimal Technologies,software,$25M,USA,Raleigh,Two Progress Plaza,27601,35.808736,-78.623191
WebLayers,software,$10M,USA,Cambridge,125 Cambridge Park Drive,02140,42.377535,-71.149057
Optichron,semiconductor,$29M,USA,Fremont,4221 Technology Drive,94538,37.5078425,-121.9554213
Roundbox,software,$43M,USA,Florham Park,25 Hanover Road,07932,40.79034,-74.385196
Kleer,hardware,$58M,USA,Cupertino,19925 Stevens Creek Blvd.,95014,37.3230162,-122.0212868
Fooooo,search,$2M,,,,,,
Oree Advanced Illumination Solutions,hardware,$7M,ISR,Ramat Gan,"Beit Or, 30 Tuval St",52522,,
MaxxAthlete,web,$3M,,,,,,
Naverus,hardware,$14M,,,,,,
Breach Security,security,$31M,USA,Carlsbad,2141 Palomar Airport Road,92011,33.12417,-117.275236
QSecure,security,$49M,USA,Los Altos,333 Distel Circle,94022,37.3962827,-122.105531
Asoka,hardware,$7M,USA,Santa Clara,2620 Augustine Dr #230,95054,37.3694441,-121.9662996
Samplify Systems,semiconductor,$22M,USA,Santa Clara,160 Saratoga Avenue,95051,37.326897,-121.968263
Brash Entertainment,games_video,$400M,,,,,,
BroadLight,software,$27M,USA,Santa Clara,2901 Tasman Drive,95054,37.404044,-121.978956
Shanghai Media Group,games_video,$12M,,,,,,
Mobile Digital Media,games_video,$2M,,,,,,
Pythagoras Solar,cleantech,$10M,ISR,Petach Tikva,25 Bazel st.,49130,,
Voxify,enterprise,$33M,USA,Alameda,Voxify Corporate Headquarters 1151 Marina Village Parkway,94501,,
[x+1],enterprise,$45M,USA,New York,315 Park Avenue South,10010,40.7455068,-73.982624
Pulse Entertainment,mobile,$7M,USA,San Francisco,900 Kearny St. Suite 300,94133,37.796396,-122.404869
Paymetric,security,$30M,USA,Alpharetta,11175 Cicero Drive,30022,34.0512574,-84.2783459
Agito Networks,enterprise,$22M,USA,Santa Clara,3255 Scott Blvd,95054,37.381034,-121.971487
Voxer LLC,mobile,$30M,USA,San Francisco,"760 Market Street, 5th Floor",94102,,
MonoSphere,network_hosting,$17M,,,,,,
Donnorwood Media,web,$5M,USA,San Francisco,"620 Folsom St, Suite 350",94107,37.785271,-122.397582
QuickPlay Media,enterprise,$138M,CAN,Toronto,190 Liberty Street,M6K 3L5,,
CloudShield Technologies,software,$25M,USA,Sunnyvale,212 Gibraltar Drive,94089,37.409618,-122.017792
BlueRoads,software,$15M,USA,San Mateo,"1855 South Grant Street, 4th floor",94402,,
SensorTran,hardware,$17M,USA,Austin,"4401 Freidrich Lane,",78744,30.208939,-97.749879
GridApp Systems,software,$5M,USA,New York,156 5th Avenue,10010,,
SafeRent,,$3M,,,,,,
GAMEVIL,games_video,$80M,KOR,Seoul,4th FL. Samsung IT Valley 197-5,152-848,,
Ginx,web,$2M,,,,,,
Skout,social,$22M,USA,San Francisco,301 Howard,94105,37.7800539,-122.3912492
Telegent Systems,hardware,$35M,USA,Sunnyvale,470 Potrero Avenue,94085,,
Polimetrix,,$3M,USA,Palo Alto,285 Hamilton Avenue,94301,,
YouGov,consulting,$54M,USA,Palo Alto,285 Hamilton Avenue,94301,37.445111,-122.160779
Silicon Genesis,hardware,$23M,USA,San Jose,61 Daggett Drive,95134,37.3938424,-121.9318273
DemandTec,software,$6M,USA,San Carlos,"1 Circle Star Way, Suite 200",94070,37.498842,-122.239815
ITM Software,software,$10M,USA,Santa Clara,2880 San Tomas Expy,95051,37.3731161,-121.9659387
Eka Systems,cleantech,$40M,USA,Germantown,"20201 Century Boulevard, Suite 250",20874,39.1878563,-77.2610228
Signiant,software,$10M,USA,Burlington,152 Middlesex Turnpike,01803,42.48366,-71.221878
SkyData Systems,mobile,$4M,USA,San Mateo,1840 Gateway Drive,94404,37.55873,-122.27992
ZinkoTek,web,$2M,USA,San Rafael,4328 Redwood Hwy.,94903,38.0148706,-122.5411756
Linux Networx,software,$47M,USA,Bluffdale,14944 Pony Express Road,84065,,
DesignArt Networks,semiconductor,$2M,ISR,Raanana,HaHaroshet St.4,43657,,
Netmagic Solutions,network_hosting,$36M,IND,Mumbai,"22, Nirlon Complex",400063,,
Arcot Systems,security,$42M,USA,Sunnyvale,455 West Maude Avenue,94085,37.3898635,-122.0310612
Naseeb Networks,web,$2M,PAK,Lahore,"210-A, 2nd Floor",,37.3015115,-121.9303616
HeySpace,web,$20M,CHN,Guangzhou,"9F, Tower A, Guangzhou Information Port",,,
eMar,advertising,$10M,CHN,Beijing,"Chaoyang District, Beijing Yong An Dong Li Jian Guo Men Wai",100022,,
Speedshape,advertising,$5M,USA,Bingham Farms,30300 Telegraph,48025,42.548008,-83.214753
DuneNetworks,semiconductor,$12M,USA,Sunnyvale,"710 Lakeway Dr., Suite 265",94085,37.386774,-121.987661
HiWired,software,$14M,USA,Needham,117 Kendrick Street,02494,42.2960173,-71.2128734
Chelsio Communications,network_hosting,$79M,USA,Sunnyvale,370 San Aleso Ave.,94085,37.3936563,-122.0279022
New England Cable News,web,$7M,USA,Newton,160 Wells Ave,02459,42.2940916,-71.1977771
CacheLogic,software,$45M,GBR,Cambridge,326 Cambridge Science Park,CB4 0WG,,
C3L3B Digital,games_video,$3M,USA,Calabasas,5016 Parkway Calabasas,91302,34.1549426,-118.6545471
PowerVision,medical,$77M,USA,Belmont,298 Harbor Boulevard,94002,37.5210726,-122.2672469
Power Analog Microelectronics,hardware,$12M,USA,Santa Clara,3685 Enochs Street,95051,37.3767076,-121.997483
Tymphany,other,$13M,USA,San Rafael,1050 Northgate Dr,94903,38.0085435,-122.5447216
Neuralitic Systems,mobile,$18M,CAN,"MontrÃ©al, Qc","507, Place D'Armes",H2Y 2W8,45.5044288,-73.5570651
MediaPhy,semiconductor,$13M,USA,San Jose,180 Rose Orchard Way,95134,37.41668,-121.949456
Good Technology,mobile,$271M,USA,Sunnyvale,430 N. Mary Ave,94085,37.518539,-122.254275
Appscio,software,$7M,USA,Freedom,"80 Airport Boulevard,",95019-2901,36.9397206,-121.7768449
Intelleflex,enterprise,$44M,USA,Santa Clara,2465 Augustine Drive,95054,,
TuVox,consulting,$20M,USA,Cupertino,19050 Pruneridge Avenue,95014,37.3322445,-122.006515
Backchannelmedia,software,$3M,USA,Boston,105 South Street,02111-2811,42.3514855,-71.0572879
Quorum Systems,,$30M,USA,Carlsbad,3704 Azimuth Place,92008,33.170083,-117.30088
Spreadtrum Communications,,$20M,USA,San Diego,"5960 Cornerstone Court,",92121,32.895267,-117.191342
Intelliden,software,$80M,USA,Menlo Park,535 Middlefield Road,94025,37.4587657,-122.1725191
FastScaleTechnology,software,$12M,USA,Santa Clara,"2550 Walsh Ave, Suite 100",95051,37.370056,-121.973157
Bluestreak Technology,mobile,$39M,CAN,"Montreal, Quebec",410 Saint-Nicolas,H2Y 2P5,,
ReflexPhotonics,hardware,$5M,USA,Mountain View,"615 National Avenue, Suite 210",94043,37.401951,-122.053791
Nanoradio,semiconductor,$80M,SWE,Kista,Torshamnsgatan 39,SE-164 40,59.4074153,17.9514708
Storwize,other,$28M,USA,Marlborough,225 Cedar Hill Street,01752,37.237937,-121.974591
Woven Systems,network_hosting,$30M,USA,Santa Clara,2455 Augustine Drive,95054,37.3821368,-121.970505
Ohai,games_video,$6M,,,,,,
Telsima,web,$95M,USA,Sunnyvale,328 Gibraltar Drive,94089,37.4092917,-122.014027
TradeBeam,enterprise,$36M,USA,San Mateo,Two Waters Park Drive,94403-1148,37.552806,-122.2916021
Everdream,software,$20M,USA,Fremont,6591 Dumbarton Circle,94555,,
Echopass Corporation,network_hosting,$9M,USA,Pleasanton,6601 Koll Center Parkway,94566,37.661002,-121.897829
Atrenta,software,$33M,USA,San Jose,"2077 Gateway Place, Ste 300",95110,37.371088,-121.925355
Venda,ecommerce,$26M,USA,New York,"1500 Broadway, 18th Floor",10036,,
TRAFFIQ,advertising,$18M,USA,New York,462 7th Avenue,10018,40.7429533,-73.9844611
SpaceClaim,software,$49M,USA,Concord,150 Baker Ave. Ext.,01742,42.462373,-71.387308
Virtual Computer,software,$21M,USA,Westford,Primrose Park 3 LAN Drive,01886,,
OpVista,software,$43M,USA,Milpitas,870 North McCarthy Blvd.,95035,37.4384108,-121.9240273
Gamervision,games_video,$10M,USA,Doylestown,4030 Skyron Drive,18902,40.3321202,-75.1184485
Mazu Networks,security,$7M,USA,Cambridge,125 CambridgePark Drive,02140,42.395219,-71.145326
Traiana,,$15M,USA,New York,51 East 42nd St.,10017,40.752844,-73.978324
BBspace,,$11M,,,,,,
Luminary Micro,semiconductor,$44M,USA,Austin,108 Wild Basin Road South,78746,30.306591,-97.826727
LucidWorks,analytics,$32M,USA,Redwood City,3800 Bridge Parkway,94065,37.553121,-122.301534
Carrier IQ,mobile,$42M,USA,Mountain View,1200 Villa Street,94041,37.3955775,-122.0833286
Tobii Technology,hardware,$51M,SWE,Danderyd,KarlsrovÃ¤gen 2D,S-182 53,,
Acopia Networks,,$20M,USA,Lowell,41 Wellman Street,01851,,
Hidden City Games,other,$15M,USA,Seattle,"120 Lakeside Avenue, Suite",98122,47.6026054,-122.2848651
Powertech Technology,cleantech,$65M,TWN,Taipei City,"B1,No.125,Sec.2,Nanjing E. Rd.",104,,
Interface21,software,$10M,USA,San Mateo,411 Borel Avenue,94402,37.548482,-122.320534
Xelerated,semiconductor,$53M,USA,Santa Clara,2700 Augustine Drive,95054,59.3352318,18.0571206
Visage Mobile,enterprise,$14M,USA,San Francisco,500 Sansome Street,94111,37.795141,-122.401194
Isai,finance,$33M,FRA,paris,10 bis avenue de la grande armee,75017,,
OnRequest Images,software,$27M,USA,Seattle,1415 Western Avenue,98101,47.6075374,-122.3403478
NextHop Technologies,software,$4M,USA,Mountain View,1911 Landings Drive,94043,,
U4EA,hardware,$16M,USA,Fremont,Scott Creek Business Park,94539,,
Conformity,enterprise,$3M,USA,Austin,6300 Bridge Point Parkway,78730,30.35504,-97.801083
AudioPixels,semiconductor,$4M,ISR,Tel-Aviv,"5th floor, 40 Einstein St.",61175,,
Amp'd Mobile,mobile,$374M,,,,,,
RealD,games_video,$72M,USA,Beverly Hills,"100 North Crescent Dr.,",90210,34.067554,-118.395658
CipherMax,hardware,$142M,USA,San Jose,1975 Concourse Drive,95131,37.3969138,-121.8939054
Qihoo 360 Technology,web,$575M,,,,,,
Medio,software,$30M,USA,Seattle,One Convention Place,98101,47.611827,-122.331308
iPolicy Networks,hardware,$44M,IND,Noida,SDF #B-1,201305,,
GainSpan,semiconductor,$113M,USA,San Jose,3590 N. First St.,95134,37.409064,-121.943149
Quick Hit,sports,$19M,USA,Foxboro,16 Chestnut Street,02035,,
TheMarkets,web,$30M,USA,New York,810 Seventh Avenue,10019,40.762674,-73.9821315
Etology,web,$4M,USA,Foster City,1065 East Hillsdale Blvd.,94404,37.561111,-122.270487
Gecko Audio,software,$3M,USA,Palo Alto,,,37.437328,-122.159928
Manifest Digital,consulting,$9M,USA,Chicago,600 West Chicago Ave.,60654,41.8964988,-87.6436218
ATCOR Holdings,other,$50M,,,,,,
Invarium,other,$6M,USA,San Jose,2655 Seely Avenue,95134,,
Centrality Communications,semiconductor,$20M,USA,Redwood City,900 Island Drive Suite 170,94065,,
Luminescent,hardware,$9M,USA,Palo Alto,"2471 East Bayshore Road,",94303,37.4483426,-122.1191487
NeoPath Networks,software,$11M,USA,Mountain View,2171 Landings Drive,94043,,
Amimon,semiconductor,$48M,ISR,Herzlia,"2 Maskit St.,",46733,,
ZeroG Wireless,hardware,$30M,USA,Sunnyvale,255 San Geronimo Way,94085,37.3797808,-122.0140777
Space-Time Insight,software,$42M,USA,San Mateo,1850 Gateway Dr,94404,37.555773,-122.27977
RNA Networks,enterprise,$7M,USA,Portland,34 NW 1st Ave,97209,45.5236631,-122.6713661
WANdisco,software,$45M,USA,San Ramon,5000 Executive Pkwy,94583,37.769205,-121.966395
Must See India,travel,$5M,IND,Bangalore,Bannerghatta Road,560076,12.9084701,77.600339
mValent,software,$6M,USA,Redwood Shores,500 Oracle Parkway,94065,,
Cambridge Broadband Networks,network_hosting,$40M,GBR,Cambridge,Selwyn House,CB4 0WZ,,
FastDue,web,$5M,,,,,,
Strangeloop Networks,enterprise,$10M,CAN,"Vancouver, British Columbia","1030 West Georgia Street,",V6E 2Y3,49.2847336,-123.1215927
Axeda,software,$21M,USA,Foxboro,25 Forbes Boulevard,02035,42.023421,-71.241522
ClearRisk,web,$1M,CAN,St. John's NL,"Suite 3033, Inco Innovation Centre",A1B 4J8,,
Sendio,security,$7M,USA,Newport Beach,4911 Birch St.,92660,33.6902466,-117.8659521
Fortumo,mobile,$10M,EST,Tartu,Ülikooli 6A,51003,58.3754107,26.7212208
Synapse,software,$3M,USA,Franktown,11384 Pine Valley Drive,80116,,
Pollsb,network_hosting,$2M,ISR,Tel Aviv,3 Daniel Frish St.,64731,,
AlertEnterprise,security,$27M,USA,Fremont,4350 Starboard Drive,94538,37.4923675,-121.9533099
MyWealth,web,$2M,USA,New York,"32 Old Slip,",10005,40.7038257,-74.0083282
FetchDog,web,$4M,USA,Portland,100 Fore St.,04101,43.6617644,-70.2474116
Applimation,enterprise,$4M,USA,Chicago,525 West Monroe,60661,41.880225,-87.640379
Dasient,web,$2M,USA,Palo Alto,530 Lytton Ave.,94301,37.44931,-122.160011
Ludic Labs,software,$5M,,,,,,
VU Security,security,$1M,ARG,Buenos Aires,Av Libertador 5582 9 C,1453,,
Bizanga,security,$8M,USA,San Mateo,2988 Campus Drive,94403,37.537542,-122.327609
Autonomic Networks,software,$26M,,,,,,
Concur Technologies,software,$331M,USA,Redmond,18400 NE Union Hill Rd,98028,51.5200277,-0.651155
Everyday Health,health,$177M,USA,New York,345 Hudson St,10014,,
Frenzoo,games_video,$1M,HKG,Hong Kong,19B,00000,,
Skytap,enterprise,$23M,USA,Seattle,710 2nd Avenue,98104,47.544341,-122.334732
BASH Gaming,games_video,$1M,USA,Fremont,,94555,37.5561712,-122.0780632
Major League Gaming,games_video,$69M,USA,New York,3 Park Avenue,10016,40.752672,-73.97593
Scale Computing,enterprise,$43M,USA,Indianapolis,5225 Exploration Drive,46241,,
CogniFit,web,$5M,USA,New York,P.O. Box 7360,10116,47.6023367,-122.2850112
Pocket Communications Northeast,mobile,$125M,USA,Bloomfield,1280 Blue Hills Ave,06002,41.853615,-72.70375
Quickflix,games_video,$10M,AUS,Perth,"Level 4, 178 St Georges Terrace",6000,,
Imaginova,ecommerce,$15M,USA,New York,470 Park Avenue South,10016,40.7454971,-73.9826042
Purple Communications,messaging,$5M,USA,Rocklin,595 Menlo Dr,95765,,
Skoodat,education,$2M,USA,Chattanooga,1604 Carter Street,37402,34.9707103,-85.3509296
Tizor Systems,enterprise,$15M,USA,Maynard,5 Clock Tower Place,01754,,
Kashless,ecommerce,$9M,USA,Seattle,106 West Roy St.,98119,47.6257402,-122.3581623
Avere Systems,network_hosting,$37M,USA,Pittsburgh,910 River Avenue,15212,40.532969,-80.010645
IS Decisions,software,$2M,FRA,BIDART,Technopole Izarbel,64210,43.4477272,-1.5555799
ClickEquations,advertising,$3M,USA,Conshohocken,555 E. North Ln,19428,40.0751561,-75.2850602
Viridity Software,software,$15M,USA,Burlington,5 Burlington Woods Suite 205,01803,42.4871509,-71.1986329
Dyn,network_hosting,$38M,USA,Manchester,150 Dow Street,03101,42.9959408,-71.4634803
Corrigo,software,$20M,USA,Tualatin,8245 SW Tualatin Sherwood Road,97070,,
IGLOO Software,software,$9M,CAN,Kitchener,22 Frederick Street,N2H 6M6,43.4496954,-80.487328
Lush Technologies,ecommerce,$2M,,,,,,
Evostor,software,$8M,USA,Campbell,1901 S. Bascom Ave,95008,37.232902,-121.964385
Jama Software,software,$13M,USA,Portland,1060 NW 9th Avenue,97209,45.5309644,-122.68038
Conmio,mobile,$2M,FIN,Helsinki,Annankatu 25,00100,60.1679244,24.9372937
NorSun,cleantech,$272M,NOR,Oslo,Sommerrogaten 13-15,0255,,
Relypsa,biotech,$322M,USA,Redwood City,700 Saginaw Drive,94063,37.5024749,-122.220408
Quadriserv,consulting,$51M,,,,,,
ePartners,software,$25M,USA,Irving,1231 Greenway Drive,75038,32.889576,-96.9668747
BioVex,biotech,$122M,GBR,Oxon,70 Milton Park,OX14 4RX,51.671711,-1.289082
Cmed,consulting,$5M,GBR,Horsham,"Holmwood, Broadlands Business Campus",RH12 4QP,,
IForem,network_hosting,$5M,USA,Redwood Shores,350 Marine Parkway Suite 200,94065,,
Kenta Biotech,biotech,$10M,,,,,,
Sangart,biotech,$301M,USA,San Diego,6175 Lusk Blvd,92121-2729,32.89929,-117.1948
Taggify,advertising,$1M,ARG,Buenos Aires,Concepcion Arenal 3425,1414,,
Notable Solutions,consulting,$5M,,,,,,
Tongxue,web,$6M,,,,,,
Networks in Motion,mobile,$10M,USA,Aliso Viejo,6A Liberty Suite 200,92656,33.5593924,-117.7293854
FSV Payment Systems,other,$6M,USA,Jacksonville,6410 Southpoint Parkway,32216,,
Foursquare,mobile,$147M,USA,New York,568 Broadway,10012,,
CashStar,ecommerce,$26M,USA,Portland,129 Middle St,04101,,
SuperSecret,web,$10M,USA,San Francisco,660 4th Street,94107,37.7775896,-122.3956019
Vysr,web,$2M,USA,Palo Alto,"540 University Ave, Suite 50",94301,,
mSnap,mobile,$5M,USA,Denver,1350 17th Street,80202,,
Claros Diagnostics,biotech,$4M,,,,,,
Infobright,software,$21M,CAN,"Toronto, Ontario",403-47 Colborne Street,M5E1P8,43.6490631,-79.3749698
Transfer To,mobile,$3M,SGP,Singapore,600 North Bridge Road,188778,1.3006925,103.8575356
Home-Account,finance,$1M,USA,San Francisco,188 King Street,94107,37.778551,-122.391686
Republic Project,advertising,$1M,USA,Santa Monica,216 Main Street,90291,33.6156634,-111.8931647
Paymate,web,$9M,AUS,,,,,
Synacor,,$17M,USA,Buffalo,40 La Riviere Dr.,14202,,
MarkMonitor,security,$12M,USA,San Francisco,303 Second Street,94107,,
Dayforce,enterprise,$40M,CAN,Toronto,4110 Yonge St,M2P 2B7,43.7465688,-79.4072765
Livescribe,hardware,$121M,USA,Oakland,7677 Oakport St.,94621,,
Preview Networks,games_video,$4M,DNK,Copenhagen,Njalsgade 21F,2300,55.6659813,12.5800751
Tongal,web,$16M,USA,Santa Monica,1918 Main Street,90405,34.007112,-118.489748
Indicative Software,software,$6M,USA,Fort Collins,724 Whalers Way,80525,,
AdWhirl,advertising,$1M,,,,,,
Openbravo,software,$17M,ESP,Barcelona,Pau Claris 138,08009,41.3935324,2.1660785
MetricStream,software,$65M,USA,Palo Alto,2600 E. Bayshore Road,94303,37.446535,-122.118794
Swoopo,ecommerce,$14M,USA,Mountain View,,,,
Groxis,,$4M,USA,San Francisco,402 Jackson Street,94111,,
One Kings Lane,ecommerce,$113M,USA,San Francisco,1355 Market St,94103,,
HootSuite,social,$190M,CAN,Vancouver,5 East 8th Avenue,V5T4S8,49.2851733,-123.0952381
Catbird,security,$12M,USA,Scotts Valley,1800 Green Hills Road,95066,,
MedAptus,software,$6M,USA,Boston,176 Federal Street,02110,42.3538857,-71.0561903
Suniva,cleantech,$224M,USA,Norcross,5775 Peachtree Industrial Blvd.,30092,33.954713,-84.2213281
Adapx,software,$30M,USA,Seattle,2200 Alaskan Way,98121,47.603873,-122.3339579
Brandsclub,ecommerce,$17M,BRA,Sao Paulo,,,-23.5489433,-46.6388182
Smallaa,web,$3M,USA,San Jose,2860 Zanker Road Ste 108,95134,37.39458,-121.928393
Piedmont Pharmaceuticals,biotech,$5M,USA,Greensboro,"204 Muirs Chapel Road, Suite 200",27410,36.072863,-79.869229
Aerovance,biotech,$119M,USA,,"Berkeley,",,37.8715926,-122.272747
Orthocon,biotech,$25M,USA,New Brunswick,675 US Highway One,08902,40.456124,-74.462469
Fusion-io,enterprise,$112M,USA,Salt Lake City,6350 South 3000 East 6th Floor,84121,40.756352,-111.871802
Ember,mobile,$118M,USA,Irvine,,,,
Phurnace Software,software,$10M,USA,Austin,"707 Rio Grande,",78701,30.271393,-97.748623
Bomgar,software,$11M,USA,Ridgeland,578 Highland Colony Parkway,39157,32.416174,-90.1633006
Hostway,network_hosting,$110M,USA,Chicago,100 North Riverside Plaza,60606,41.8831954,-87.638807
Southwest Windpower,cleantech,$10M,USA,Broomfield,"100 Technology Drive, Suite 325",80021,,
Traversa Therapeutics,biotech,$7M,USA,La Jolla,505 Coast Blvd South,92037,32.843245,-117.279345
Ambrx,biotech,$10M,USA,La Jolla,10975 North Torrey Pines Road,92037,32.903177,-117.241409
Foundation Radiology Group,biotech,$16M,USA,Pittsburgh,"Three Gateway Center, 20th Floor",15222,,
APR Energy,hardware,$30M,,,,,,
New Leaf Paper,cleantech,$5M,,,,,,
Real Time Genomics,biotech,$3M,,,,,,
SolarEdge,cleantech,$85M,USA,Fremont,3347 Gateway Boulevard,94538,37.4757796,-121.9382415
Principle Energy Limited,cleantech,$10M,,,,,,
Novira Therapeutics,biotech,$44M,USA,Radnor,"259 N. RADNOR-CHESTER ROAD, SUITE 220",19087,,
iZumi Bio,biotech,$20M,USA,South San Francisco,951 Gateway Blvd.,94080,37.661523,-122.398667
NeoStem,biotech,$11M,USA,New York,420 Lexington Avenue,10170,,
Arzeda,biotech,$12M,,,,,,
Selecta Biosciences,biotech,$102M,USA,Watertown,480 Arsenal St,02472,,
avVenta,advertising,$20M,USA,New York,155 Avenue of the Americas,10013,,
Gear6,network_hosting,$20M,USA,Mountain View,526 Clyde Avenue,94043,37.389615,-122.050179
Fluid,ecommerce,$24M,USA,San Francisco,"222 Sutter St., 8th Floor",94108,,
KupiVIP,ecommerce,$120M,RUS,Moscow,"Moscow, Samokatnaya st., h. 1/21",,,
Level 5 Networks,semiconductor,$30M,USA,Sunnyvale,840 West California Avenue,94086,,
Tribal Nova,games_video,C$3M,CAN,Montreal,"4398, Boul. St-Laurent",H2W 1Z5,45.5194549,-73.5849023
BuzzCity,mobile,$10M,SGP,Singapore,"No 1 Lorong 2, Toa Payoh,",319637,,
Alios BioPharma,biotech,$32M,USA,South San Francisco,"260 East Grand Ave,",94080,37.6664003,-122.451448
We Are Hunted,games_video,$3M,USA,,,,,
Melinta,biotech,$116M,USA,New Haven,300 George Street  Suite 301,06511-6663,41.305179,-72.93117
Borrego Solar Systems,cleantech,$44M,USA,El Cajon,"1810 Gillespie Way, Suite 108",92020,32.8193566,-116.981232
