name,category_code,number_of_employees,total_money_raised,country_code,city,address,zip_code,latitude,longitude
Flektor,games_video,,$0,USA,Culver City,"8536 National Blvd, Suite A",90232,34.025958,-118.379768
Lala,games_video,,$44.2M,USA,Palo Alto,209 Hamilton Ave,94301,37.451151,-122.154369
Joost,games_video,0.0,$45M,USA,New York,100 5th Ave Fl 6,10011-6903,40.7464969,-74.0094471
Babelgum,games_video,,$13.2M,GBR,London,,,53.344104,-6.267494
Sparter,games_video,,$0,USA,,,,37.09024,-95.712891
Kyte,games_video,40.0,$23.4M,USA,San Francisco,442 Post Street,94102,37.788482,-122.409173
Veoh,games_video,,$69.8M,USA,San Diego,10180 Telesis Court Suite,92121,32.902266,-117.20834
YouTube,games_video,0.0,$11.5M,USA,San Bruno,901 Cherry Ave,94066,37.627971,-122.426804
Stickam,games_video,35.0,$0,USA,Los Angeles,1975 pads rd,90071,34.051409,-118.254558
blogTV,games_video,,$3M,ISR,Ramat Gan,30 Ben Gurion St.,52573,31.046051,34.851612
Livestream,games_video,120.0,$14.7M,USA,New York,"111 8th Avenue, #1509",10011,40.726155,-73.995625
Ustream,games_video,250.0,$60.1M,USA,San Francisco,410 Townsend,94107,37.392936,-122.07948
AdaptiveBlue,games_video,15.0,$24M,USA,NYC,131 Varick St,10013,40.801358,-74.3372
Pando Networks,games_video,23.0,$11M,USA,New York,520 Broadway,10012,40.722655,-73.99873
Revision3,games_video,,$9M,USA,San Francisco,2415 3rd St,94107,37.757758,-122.388243
CastTV,games_video,0.0,$3.1M,USA,San Francisco,374 Brannan St.,94107,37.780716,-122.393913
AllofMP3,games_video,,$0,RUS,Moscow,,,55.755786,37.617633
There,games_video,,$0,USA,San Mateo,1855 South Grant Street,94402,37.553385,-122.302149
SellABand,games_video,,$5M,DEU,46395 Bocholt,Harderhook 22,,51.808933,6.553452
Funny Or Die,games_video,,$18M,USA,San Mateo,167 2nd Ave,94401,37.421621,-122.137444
MeeVee,games_video,,$25M,USA,Burlingame,"500 Airport Blvd., Suite 400",94010,37.590339,-122.341715
blinkx,games_video,,$0,USA,San Francisco,1 Market Street,94105,37.793819,-122.395089
RockYou,games_video,106.0,$136M,USA,Redwood City,585 Broadway,94063,37.484619,-122.206893
iLike,games_video,28.0,$16.5M,USA,Seattle,"1605 Boylston Ave, Suite 202",98122,47.615313,-122.323408
hi5,games_video,100.0,$52M,USA,San Francisco,55 Second Street,94105,37.788668,-122.400558
Nintendo,games_video,5080.0,$0,JPN,,,,36.204824,138.252924
Curse,games_video,58.0,$12M,USA,San Francisco,60 Broadway,94111,37.787092,-122.399972
Jaman,games_video,,$0,USA,San Mateo,2955 Campus Dr,94403,37.536172,-122.327323
PeerMe,games_video,,$5M,USA,Mountain View,2115 Landings Drive,94043,37.419819,-122.090188
Vuze,games_video,20.0,$34M,USA,San Mateo,4 W. 4th Ave,94402,37.4858654,-122.2262606
PodTech,games_video,,$7.5M,USA,Palo Alto,1801 Page Mill Rd - Suite 400,94304,37.408256,-122.154176
Crackle,games_video,,$1.75M,USA,Culver City,10202 W. Washington Blvd,90232,34.017506,-118.401579
BuddyTV,games_video,20.0,$10.6M,USA,Seattle,190 Queen Anne Ave Suite 280,98109,47.61968,-122.356756
The Walt Disney Company,games_video,25000.0,$0,USA,Burbank,500 S. Buena Vista St.,91521,34.156802,-118.324987
PermissionTV,games_video,,$9M,USA,Waltham,"1601 Trapelo Road, Suite 168",02451,42.417268,-71.258466
WebbAlert,games_video,,$0,USA,Los Angeles,,,34.052187,-118.243425
WallStrip,games_video,,$600k,USA,,,,37.09024,-95.712891
Aniboom,games_video,25.0,$14.5M,ISR,,,,31.046051,34.851612
MyToons,games_video,,$0,USA,San Antonio,"118 Broadway, Suite 316",78205,29.427051,-98.487764
ActiveWorlds,games_video,,$0,USA,Newburyport,95 Parker Street,01950,42.7973978,-70.8873327
KnockaTV,games_video,,$4.5M,ISR,,,,31.046051,34.851612
Strayform,games_video,,$0,USA,,,,31.169036,-100.076888
Revver,games_video,,$12.7M,USA,Los Angeles,,,34.052187,-118.243425
Metacafe,games_video,,$50M,USA,San Francisco,128 King Street,94107,37.437328,-122.159928
Snocap,games_video,,$25M,USA,San Francisco,"201 Third Street, 2nd Floor",94103,,
IODA,games_video,,$0,USA,San Francisco,"539 Bryant Street, Suite 303",94107,37.780134,-122.396744
Kongregate,games_video,20.0,$19M,USA,San Francisco,2 Shaw Alley,94105,37.786942,-122.401245
DanceJam,games_video,0.0,$4.5M,USA,San Francisco,965 Mission Street,94103,37.781557,-122.407959
SlapVid,games_video,,$0,USA,Pittsburgh,407 S. Craig St. #105A,15213,40.445009,-79.948563
GoFish,games_video,,$24M,USA,,,,37.09024,-95.712891
JumpTV,games_video,,$0,USA,New York,"40 Broad Street, Suite 500",10004,40.705898,-74.011398
Zango,games_video,225.0,$40M,USA,Bellevue,3600 136th Place SE,98006,47.579208,-122.155668
Mevio,games_video,,$48.9M,USA,San Francisco,577 2nd St Suite 203,94107,37.782263,-122.392142
Ruckus,games_video,,$52.2M,USA,,,,37.09024,-95.712891
sezmi,games_video,,$78.6M,USA,Belmont,1301 Shoreway Road,94002,37.524422,-122.265869
SpiralFrog,games_video,15.0,$45M,USA,New York,95 Morton Street,10014,37.09024,-95.712891
Vtap,games_video,,$14M,USA,Andover,,,42.656621,-71.140538
Webshots,games_video,12.0,$0,USA,Corte Madera,,94925,,
MocoSpace,games_video,25.0,$10.5M,USA,Boston,,02111,42.350274,-71.058768
YouBeQB,games_video,8.0,$0,USA,Bellevue,,,47.597965,-122.151158
eMusic,games_video,,$0,USA,New York,39 W. 13th Street,,,
Xfire,games_video,,$7M,USA,Santa Monica,310 Wilshire Blvd.,90401,34.0184659,-118.49863
Contrastream,games_video,1.0,$0,CAN,Toronto,62 Sexton Cres,M2H 2L5,43.799511,-79.348037
Videohybrid,games_video,2.0,$0,USA,San Jose,,,37.316466,-121.873881
Finetune,games_video,,$0,USA,Newton,"255 Washington Street ,",0245902458,,
OMGPOP,games_video,50.0,$16.6M,USA,New York,SoHo,,40.723384,-74.001704
Crunchyroll,games_video,50.0,$4.8M,USA,San Francisco,,94105,37.781265,-122.393229
Magnify,games_video,,$4.61M,USA,New York,,,,
Yugma,games_video,38.0,$0,USA,Eden Prairie,PO Box 46573,55344,44.865243,-93.4094629
hulu,games_video,153.0,$100M,USA,Los Angeles,12312 W. Olympic Blvd.,90064,34.031276,-118.456806
MediaPops,games_video,0.0,$0,USA,Seattle,,98101,47.611012,-122.333523
Musicshake,games_video,28.0,$3.5M,USA,Los Angeles,3460 Wilshire Blvd. 7FL,90010,,
FlowPlay,games_video,30.0,$3.97M,USA,Seattle,114 Alaskan Way South,98104,47.6015315,-122.335943
RotoHog,games_video,,$8M,USA,Los Angeles,,,33.959799,-118.343938
ChessPark,games_video,,$1M,USA,West Palm Beach,,,43.67084,-83.913153
mig33,games_video,100.0,$32.4M,SGP,Singapore,111 North Bridge Road,179098,37.580304,-122.343679
Realius,games_video,3.0,$500k,USA,Berkeley,"1625 Shattuck Ave, Ste 210",94707,37.887864,-122.26999
Metaplace,games_video,12.0,$9.4M,USA,Solana Beach,415 S Cedros Ave,90275,33.020832,-117.077311
EkkoTV,games_video,0.0,$0,USA,Sunnyvale,,,37.369195,-122.036849
SuTree,games_video,5.0,$0,ISR,Tel Aviv,,,32.0554,34.7595
PlaySpan,games_video,,$46.3M,USA,Santa Clara,,95054,37.396312,-121.961396
Graspr,games_video,,$2.5M,USA,Mountain View,"779 E Evelyn Ave, Suite D",94041,37.384919,-122.053175
Tioti,games_video,3.0,$0,USA,Seattle,14419 Greenwood Avenue N,98133,47.733603,-122.355579
Rupture,games_video,25.0,$3M,USA,San Francisco,400 2nd Street,94107,37.783898,-122.395234
Mixaloo,games_video,4.0,$0,USA,Poughkeepsie,"35 Main Street, Suite 441",12601,41.705555,-73.938638
alluc,games_video,7.0,$0,DEU,Norderstedt,Stormarnstrasse 4,22844,53.707739,10.023246
RayV,games_video,,$16M,USA,New York,"150 West 77, Suite 4",,40.781159,-73.978332
Veodia,games_video,15.0,$8.3M,USA,San Mateo,1825 S Grant Street,94402,37.553743,-122.300246
blinkbox,games_video,,$0,GBR,London,20-24 Kirby Street,EC1N 8TS,51.520779,-0.10759
CollegeHumor,games_video,,$20M,USA,,,,37.09024,-95.712891
Vimeo,games_video,,$0,USA,New York,555 W 18th St,10011-2822,40.7453721,-74.0078293
OnLive,games_video,,$56.5M,USA,Palo Alto,181 Lytton Ave.,94301,37.09024,-95.712891
PicksPal,games_video,,$15M,USA,Mountain View,,,37.40047,-122.072981
Mydeo,games_video,,$0,GBR,Wimbledon,Collingham House 10-12 Gladstone Road,SW19 1QT,,
Zattoo,games_video,45.0,$10M,USA,Ann Arbor,1327 Jones Dr. Suite 106,48105,42.292649,-83.734673
Jango,games_video,,$0,USA,New York,,,40.757929,-73.985506
Qloud,games_video,,$600k,USA,Silver Spring,,,39.016745,-77.023821
FilmCrave,games_video,3.0,$0,USA,,,64064,38.977092,-94.370901
DraftMix,games_video,3.0,$0,USA,Campbell,,,37.279132,-121.956295
Akimbo,games_video,,$35.7M,USA,San Mateo,411 Borel Avenue,94402,37.548482,-122.320534
Fleaflicker,games_video,,$0,USA,Tenafly,PO Box 64,07670,40.916003,-73.952052
GotCast,games_video,5.0,$50k,USA,Los Angleles,"200 S Barrington Ave, # 491141",90049,34.064139,-118.468672
Fix8,games_video,,$5M,USA,Sherman Oaks,15250 Ventura Blvd,91403,34.152826,-118.465582
ZeniMax,games_video,,$586M,USA,Rockville,1370 Piccard Drive,20850,39.105555,-77.179772
doof,games_video,15.0,$0,GBR,London,The Forum,NW1 0EG,,
Blowtorch,games_video,,$50M,USA,Sausalito,10 Liberty Ship Way #330,94965,37.862592,-122.493561
Dabble,games_video,,$350k,USA,Berkeley,2342 Shattuck Ave. #276,94704,37.866833,-122.267796
SnapYap,games_video,,$0,USA,Boston,198 Tremont St. #286,02116,42.352096,-71.064632
RedLasso,games_video,,C$8.5M,USA,King of Prussia,620 Allendale Road,19406,40.099703,-75.39599
YouLicense,games_video,12.0,$1.1M,ISR,Tel Aviv,,63118,,
Motionbox,games_video,,$17.2M,USA,New York,80 Broad St,10004,40.606061,-73.822331
Kewego,games_video,65.0,$19.4M,FRA,Paris,"111, rue Cardinet",75017,46.227638,2.213749
WildTangent,games_video,,$84M,USA,Redmond,18578 NE 67th Ct,98052,37.09024,-95.712891
WeShow,games_video,0.0,$5M,USA,New York,,10017,40.752516,-73.973072
Picktastic,games_video,2.0,$0,USA,,,98052,47.680496,-122.120938
PlayFirst,games_video,,$37.7M,USA,San Francisco,160 Spear St,94105,37.790346,-122.40185
Kdice,games_video,,$0,CAN,,,,56.130366,-106.346771
Delve Networks,games_video,,$9.65M,USA,Seattle,206 1st Ave South,98104,47.600818,-122.334117
LiveHire,games_video,5.0,$0,USA,Edison,510 Thornall Street,08837,40.565602,-74.331811
PlayCafe,games_video,,$0,USA,Redwood City,,,37.476479,-122.221717
DeepRockDrive,games_video,,$3M,USA,Las Vegas,,89173,36.1062,-115.1374
Fancast,games_video,,$0,USA,Philadelphia,1701 JFK Blvd.,19103,,
Critical Media,games_video,,$6.2M,USA,New York,521 Fifth Avenue,10175,,
Outspark,games_video,,$23.3M,USA,San Francisco,,,37.775196,-122.419204
Zynga,games_video,115.0,$860M,USA,San Francisco,365 Vermont St.,94103,37.765158,-122.404234
Scrabulous,games_video,30.0,$0,IND,Kolkata,,,22.572646,88.363895
livecastr,games_video,,$0,NLD,Amsterdam,,,52.373812,4.890951
iVideosongs,games_video,,$3.3M,USA,,,,37.09024,-95.712891
Qtrax,games_video,,$0,USA,New York,211 Madison Avenue,10016,40.748641,-73.981947
WorldTV,games_video,5.0,$1M,IRL,Limerick,,,52.6638571,-8.6267726
WellcomeMat,games_video,6.0,$0,USA,Boulder,,80304,,
WonderHowTo,games_video,12.0,$0,USA,Santa Monica,1832 Franklin Street,90404,34.031764,-118.461884
YouPorn,games_video,,$0,USA,,,,37.09024,-95.712891
TV Shack,games_video,,$0,SWE,Stockholm''',Radmansgatan 42,114 99,59.3412176,18.0614125
Spout,games_video,,$0,USA,Grand Rapids,80 Ottawa Ave NW,,42.964911,-85.6704213
Bukisa,games_video,5.0,$0,ISR,Ramat Gan,,,,
Gawker Media,games_video,,$0,USA,New York,210 Elizabeth Street,10012,40.757929,-73.985506
idiomag,games_video,,$0,GBR,London,,,51.500152,-0.126236
Triptuber,games_video,2.0,$0,QAT,Doha,,,25.2948,51.5082
Maven Networks,games_video,0.0,$12M,USA,Cambridge,,,42.375392,-71.118487
GameDuell,games_video,200.0,$17.5M,USA,San Francisco,"703 Market St., Ste. 350","CA, 94103",,
JukeFly,games_video,2.0,$0,USA,San Jose,1631 Inglis Ln,,37.244187,-121.9053
Volo Media,games_video,,$0,MLT,Mellieha,Tas-Sellum Residence 612,MLH,,
Recombinant,games_video,10.0,$0,USA,Santa Cruz,,,36.977905,-122.03336
TV Guide,games_video,,$0,USA,Tulsa,7140 South Lewis Avenue,74136,36.0592598,-95.957865
Paramount Pictures,games_video,,$0,USA,New York,1515 Broadway,10036,40.7577017,-73.9858165
Netflix,games_video,2000.0,$230M,USA,Los Gatos,100 Winchester Circle,95032,37.25142,-121.968687
Social Gaming Network,games_video,100.0,$17.1M,USA,Los Angeles,9570 W. Pico Blvd 3rd Floor,90035,37.446823,-122.161523
Qbox,games_video,,$0,USA,Fullerton,2751 E.Chapman Ave #204,92831,33.874609,-117.881607
YouCastr,games_video,5.0,$500k,USA,Cambridge,18 Hurley Street,02141,42.36787,-71.078258
Newsclipper,games_video,0.0,$0,USA,,,,37.269175,-119.306607
Paprika Lab,games_video,30.0,$3.2M,KOR,Seoul,736-54 LS Building 3F,135-080,,
RiffTrax,games_video,8.0,$5M,USA,San Diego,12230 El Camino Real,92130,32.936973,-117.240431
World Reviewer,games_video,6.0,$0,GBR,London,129 Canalot Studios,W8 5QH,,
FameCast,games_video,,$9.7M,USA,Austin,3000 East Cesar Chavez,78702,30.268735,-97.745209
HD Greetings,games_video,5.0,$0,USA,Burlingame,700 Airport Blvd #470,94010,37.590056,-122.347654
Redux,games_video,11.0,$8.11M,USA,Berkeley,2054 University Avenue,94704,37.87168,-122.269494
CineGoGo,games_video,2.0,$0,USA,San Mateo,3 37th Ave,94403,37.534317,-122.294847
Raptr,games_video,,$27M,USA,Mountain View,701 N Shoreline Blvd,94043,37.40384,-122.07808
Swarmcast,games_video,,$0,USA,Minneapolis,,,44.977482,-93.264351
iOpener,games_video,,€10.1M,DEU,Aachen,RoermonderstraÃŸe 199,52072,50.791481,6.066681
Camlink,games_video,4.0,$0,USA,Los Gatos,,95032,40.757929,-73.985506
Inuk Networks,games_video,,$18.6M,GBR,Abercynon,"Enterprise House, Navigation Park",,,
Operation Sports,games_video,4.0,$0,USA,Woodbridge,PO Box 7016,22195,38.6581,-77.2501
Stratfor,games_video,,$0,USA,Austin,700 Lavaca Street,78701,,
Animax Entertainment,games_video,55.0,$0,USA,Van Nuys,6627 Valjean Avenue,91406,34.19099,-118.486428
2threads,games_video,30.0,$300k,AUS,sydney,"suite 5, 13-29 nichols st",2010,-33.884685,151.216427
EMOB,games_video,8.0,$0,FRA,Toulon,195 rue Jean Jaures,83000,43.124351,5.929313
I Heart Movies,games_video,2.0,$0,USA,Midland,,,43.626128,-84.227415
ulink,games_video,7.0,$0,USA,Fremont,,,37.548615,-121.988479
Panther Express,games_video,,$21.8M,USA,New York,"40 W. 20th Street, 6th Floor",10011,,
Sporting Connections,games_video,1.0,$0,AUS,Maroochydore,7/43 Dalton Drive,4558,-26.665908,153.088303
Boonty,games_video,150.0,$10M,USA,New York,54 Franklin Street,10013,40.717248,-74.002662
Generate,games_video,,$8M,USA,Santa Monica,1545 26th Street,90404,34.031328,-118.471463
Repptide,games_video,,$0,USA,San Diego,PO Box 927493,92192,32.7154,-117.1565
WebRidesTV,games_video,10.0,$0,USA,Culver City,8500 Steller Dr. Suite 7,90232,34.024453,-118.380437
Origin Digital,games_video,80.0,$0,USA,Weehawken,1200 Harbor Boulevard,07086,40.761979,-74.026033
Akoha,games_video,12.0,$1.9M,CAN,Montreal,3981 boul. St. Laurent,H2W 1Y5,45.516545,-73.578477
Ezmo,games_video,,$0,NOR,Oslo,P.O Box 454 Sentrum,0104,59.915323,10.751367
Taltopia,games_video,3.0,$800k,USA,Los Angeles,,,34.052187,-118.243425
ScanDigital,games_video,17.0,$350k,USA,Torrance,680 Knox Street,90502,33.918151,-118.41747
SportsUltra,games_video,,$0,USA,Seattle,701 n 90th st,98103,47.693994,-122.349701
Kazaa,games_video,,$0,,,,,,
politicsultra,games_video,,$0,USA,Seattle,701 n 90th st,98103,47.693994,-122.349701
ScribeStorm,games_video,12.0,$225k,USA,Fairfield,51 East Broadway Ave.,52556,41.007625,-91.962789
Crootpad,games_video,2.0,$0,USA,West Dundee,,60118,42.091078,-88.288749
Zooors Interactive Yachting Society,games_video,10.0,$0,CYP,Larnaca,"68, Stratigou Timayia",6051,,
FriendFinder Networks,games_video,350.0,$551M,MYS,Boca Raton,6800 Broken Sound Parkway,56100,26.4074809,-80.1169895
Playfish,games_video,,$21M,GBR,London,125 Kensington High St,London,51.4991094,-0.1984802
Omnisio,games_video,3.0,$0,USA,Atherton,,94027,37.455439,-122.204816
Mixwit,games_video,2.0,$0,,,,,,
Kirkland North,games_video,3.0,$225k,,,,,,
Entriq,games_video,,$0,USA,Carlsbad,1900 Wright Place,92008,33.122499,-117.289278
Dotsub,games_video,,$0,USA,New York,360 East 72nd St #C3104,10021,40.7680901,-73.9566761
Toufee,games_video,6.0,$0,IND,New Delhi,"24/B, Arjun",110018,28.559421,77.198911
Slicethepie,games_video,,$4.8M,GBR,,,,55.378051,-3.435973
Maestro,games_video,5.0,$750k,USA,Atlanta,800 Peachtree Street,30308,33.79802,-84.409621
Handipoints,games_video,,$800k,USA,Oakland,,,37.772323,-122.214897
Clipta,games_video,16.0,$0,USA,Sunnyvale,250 North Wolfe Road,94085,37.3793718,-122.0124404
Zebtab,games_video,5.0,$280k,GBR,London,Unit 11 Turnmills,EC1M 5NP,,
Viddyou,games_video,5.0,$0,USA,San Francisco,,,37.775196,-122.419204
Music Arsenal,games_video,3.0,$0,USA,Omaha,1909 S. 61st Ave.,68106,41.241101,-96.006819
XIHA,games_video,8.0,$1M,FIN,Helsinki,Mannerheimintie 12 B,00100,60.1681494,24.9410012
SonicSwap,games_video,8.0,$0,USA,Palo Alto,444 High Street,94301,37.444487,-122.163979
Cozimo,games_video,,$0,USA,Berkeley,1308 9th Street,94710,37.879726,-122.298015
MyMiniLife,games_video,4.0,$430k,USA,Palo Alto,2042 Euclid Avenue,94303,37.437328,-122.159928
tunesBag,games_video,,$0,AUT,Vienna,Erdbergasse 10/38,1030,,
Mytopia,games_video,29.0,$3.5M,USA,Palo Alto,,94301,34.007967,-118.489681
GoCrossCampus,games_video,25.0,$375k,USA,New York,c/o Sunshine Suites,10003,,
DivShare,games_video,,$0,USA,Reston,11654 Plaza America,20190,42.958747,-75.963326
Pikum,games_video,15.0,$5.92M,GBR,London,7 Chalcot Road,Nw1 8lh,51.539778,-0.152998
HungryFlix,games_video,4.0,$0,USA,Caldwell,,,40.84014,-74.276451
ibeatyou,games_video,,$1M,USA,Santa Monica,,90408,34.0195,-118.4906
itbreaks,games_video,4.0,$0,FRA,Pre st gervais,28 rue carnot,93310,48.887824,2.402304
Episodic,games_video,6.0,$0,USA,,,,37.269175,-119.306607
Rosterbot,games_video,,$0,CAN,Vancouver,1057 Homer St.,BC V6B2X5,49.2767775,-123.1210616
Easyteammanager,games_video,,$0,,,,,,
YourTeamOnline,games_video,2.0,C$50k,CAN,Saint John,42 Princess St.,E2L 1K2,45.271401,-66.061181
Realtime Worlds,games_video,225.0,$82.8M,GBR,Dundee,,,56.461428,-2.968111
AudioMicro,games_video,10.0,$1.25M,USA,Sherman Oaks,13351-D Riverside Dr #219,91423,34.153588,-118.422495
stickychicken,games_video,2.0,$0,USA,San Francisco,,,37.775196,-122.419204
Cellufun,games_video,30.0,$5.23M,USA,New York,33 West 19th Street,10011,40.73993,-73.9930489
Zankapfel,games_video,2.0,$0,DEU,Munich,Thalkirchnerstr. 55,80337,48.122346,11.558864
eRepublik,games_video,30.0,€2.75M,ESP,Madrid,Almagro 22,28010,40.43094,-3.6952896
Topspin Media,games_video,,$0,USA,Santa Monica,1538 20th Street,90404,34.02634,-118.477689
Harmonix Music Systems,games_video,,$0,USA,Cambridge,625 Massachusetts Avenue,02139,,
Myplaylist,games_video,1.0,$0,IND,,,,20.593684,78.96288
Guitarati,games_video,,$0,USA,,,,39.7393,-89.266508
Teet,games_video,,$0,LVA,,,,56.879635,24.603189
South Park Studios,games_video,,$0,USA,New York,1775 Broadway,10019,40.766332,-73.981828
FoxyTunes,games_video,,$0,,,,,,
Yamelo,games_video,,$0,NLD,,,,,
Vivity Labs,games_video,10.0,$1M,CAN,Vancouver,21 Water Street,V6B 1A1,49.282249,-123.108456
Velocix,games_video,,$25M,GBR,Cambridge,326 Cambridge Science Park,CB4 0WG,,
Kontend,games_video,,$0,,,,,,
Comcast,games_video,100000.0,$725M,USA,Philadelphia,1701 JFK Blvd,19103,39.9525762,-75.1652518
Monkeysee,games_video,,$1M,USA,Great Falls,774 Walker Road 2nd Floor,22066,,
NEHST Studios,games_video,,$0,USA,New York,"545 8th Avenue, Suite 401",10018,40.75451,-73.992193
walabok,games_video,2.0,$0,,,,,,
YUPPTV,games_video,70.0,$0,USA,Alpharetta,710 Ashepoint Way,30004,17.415429,78.434422
Plexonic,games_video,11.0,$0,ARM,Yerevan,Alek Manukyan 9,375070,,
Televisa,games_video,,$0,MEX,Mexico,Vasco de Quiroga 2000 Santa Fe,01210,,
Beep Interactive,games_video,2.0,$0,AUS,Melbourne,,,-37.814251,144.963169
PluggedIn,games_video,0.0,$2M,USA,Santa Monica,,,34.007967,-118.489681
Sutros,games_video,3.0,$0,USA,San Francisco,3288 21st street #185,94110,37.756922,-122.42087
imcandy,games_video,4.0,$0,ISR,,,,31.046051,34.851612
TiBconcerts,games_video,2.0,$0,CAN,,,,,
Medioh!,games_video,15.0,$0,USA,Boulder,1690 30th Street,80301,40.016582,-105.253601
Podbean LLC,games_video,10.0,$0,USA,Wilmington,"501 Silverside Road, Suite 105",19809,39.786948,-75.485407
Drop Magazine,games_video,,$0,USA,Detroit/NYC,,,40.543996,-74.179231
MUBI,games_video,20.0,$8.25M,USA,Palo Alto,668 High Street,94301,37.44236,-122.161025
Astream,games_video,8.0,$0,GBR,London,"2nd Floor, 36-37 Featherstone Street",EC1Y 8QZ,,
Modern Feed,games_video,123.0,$3M,USA,Los Angeles,818 N. La Brea Ave.,90038,34.085749,-118.343791
Omnivents,games_video,5.0,$0,USA,Palo Alto,,94301,37.44296,-122.151198
FeedFlix,games_video,2.0,$0,USA,Sunnyvale,,94087,37.35351,-122.030476
Gracenote,games_video,,$33.4M,USA,Emeryville,"2000 Powell Street, Suite 1500",94608,,
SuperVirals,games_video,5.0,$0,AUS,Surry Hills,5/50 Reservoir St,2010,-33.88106,151.209351
Oortle,games_video,,$0,USA,,,,37.269175,-119.306607
weeloop,games_video,,$0,FRA,Orvault,15 ter rue de Provence,44700,47.24496,-1.588593
YouBeats,games_video,3.0,$0,,,,,,
Calabash Music,games_video,,$0,USA,Somerville,249 Elm Street,02144,42.395308,-71.121885
Chilirec,games_video,,$0,SWE,Goteborg AB,,,57.77578,11.875103
Serious Business,games_video,22.0,$4M,USA,San Francisco,580 Market Street,94104,37.7893215,-122.4013624
Blubert,games_video,,$0,BRB,,"#108, Rowans Park,",,,
Anistock,games_video,20.0,$0,USA,Carlsbad,,92011,33.108559,-117.298979
twit+,games_video,1.0,$0,GBR,Corby,,NN18,52.472029,-0.698361
URockHard,games_video,,$0,USA,,,,34.0424511,-84.2756367
Sony BMG Music Entertainment,games_video,,$0,USA,New York,550 Madison Avenue,10022-3211,,
Kabam,games_video,650.0,$125M,USA,San Francisco,795 Folsom Street,94107,37.3944561,-122.0785314
MyAnimeList,games_video,,$0,USA,Yorba Linda,,92887,33.887112,-117.729229
Datz,games_video,,$0,GBR,Oxford,Unipart House,OX4 2PG,,
Turbine,games_video,200.0,$76.6M,USA,Westwood,"60 Glacier Drive, Suite 4000",,42.214483,-71.185964
XSketch,games_video,,$0,CAN,,,,56.130366,-106.346771
Streamzy,games_video,,$0,,,,,,
Rekatu,games_video,5.0,$0,USA,Tucson,838 E Adams Street,85719,32.240301,-110.958319
GPokr,games_video,1.0,$0,CAN,Toronto,,,43.670233,-79.386755
GodTube,games_video,,$32.5M,USA,Plano,7160 Dallas Parkway,75024,33.075067,-96.823962
Jinni,games_video,35.0,$8.1M,ISR,Tel Aviv,,,32.0554,34.7595
Citizen Sports,games_video,27.0,$10M,USA,San Francisco,525 Brannan St,94107,37.777513,-122.397044
Text America,games_video,,$0,USA,,,,37.09024,-95.712891
FantasyBook,games_video,3.0,$0,USA,Daly City,191 Warwick St,94105,37.652325,-122.464349
CrowdChess,games_video,,$0,,,,,,
OVGuide,games_video,,$7.98M,USA,Los Angeles,,,34.052187,-118.243425
Layerstream,games_video,4.0,$0,USA,Palo Alto,516 Bryant St,,37.445714,-122.161247
sevenload,games_video,67.0,€25M,DEU,Cologne,Vogelsanger Str. 78,50823,50.945289,6.921546
amazingtunes,games_video,,£1.4M,GBR,Newcastle Upon Tyne,19 Grey St,NE1 6EE,54.971346,-1.611141
RouteNote,games_video,,$0,GBR,Redruth,3 West End,TR15 2RZ,50.231464,-5.236903
Fuzz,games_video,6.0,$0,USA,Santa Clara,"3979 Freedom Circle, Suite 610",95054,37.760524,-122.387799
Posh24,games_video,5.0,$0,USA,Stockholm,5405 Wilshire Blvd Suite 245,CA 90036,59.332788,18.064488
MeFeedia,games_video,13.0,$250k,USA,Burbank,,,34.155869,-118.335292
Pitchfork Media,games_video,,$0,USA,Chicago,1834 W. NORTH AVE. #2,60622,41.910737,-87.674015
Canal Internet,games_video,,$0,USA,Miami Beach,,,25.813099,-80.122986
Hobnox,games_video,,$0,DEU,Munich,Infanteriestrasse 19,80797,48.1607175,11.553749
Sony Pictures Entertainment,games_video,,$0,USA,,,,37.09024,-95.712891
Sometrics,games_video,35.0,$5.55M,USA,El Segundo,,90245,34.048857,-118.251343
VivoCom,games_video,22.0,$0,ESP,Madrid,"c/ Princesa, 31 2Âºder",28008,,
Wuapi,games_video,,$0,ESP,Barcelona,,,41.387917,2.169919
GameFly,games_video,,$10.7M,USA,Los Angeles,11405,90066,33.934558,-118.3962622
Fliqz,games_video,25.0,$12.2M,USA,Emeryville,1266 66th St.,94608,37.848641,-122.289498
YouTomb,games_video,,$0,USA,Cambridge,,,42.375392,-71.118487
Batipi,games_video,5.0,$0,CAN,Toronto,701 King Street West,M5V 2W7,43.6436826,-79.4038652
Moblyng,games_video,,$19.1M,USA,Redwood City,901 Marshall St. #125,94063,37.453665,-122.229069
Stagevu,games_video,3.0,$0,,,,,,
musocity,games_video,1.0,$0,,,,,,
PodComics Studio,games_video,2.0,$0,CRI,Heredia,150 m. n. de ICE,,,
Kamera,games_video,,$0,SWE,Stockholm,Drottninggatan 92-94,,59.337161,18.057901
sph3re,games_video,1.0,$0,FRA,Martigues,11 rue Philippe Jourde,13500,43.400422,5.055732
itMayBe Media,games_video,3.0,$0,USA,Manville,436 W Frech Ave,08835,40.531199,-74.600858
Open Television Network,games_video,3.0,$0,USA,Burbank,519 S. Victory Blvd,91502,34.169493,-118.312902
hearwhere,games_video,2.0,$0,USA,Whistler,6227 Eagle Drive,V0N 1B6,50.123306,-122.96391
iWin,games_video,103.0,$0,USA,San Francisco,45 Fremont Street,94105,37.781689,-122.391061
Pangaeaa Enterprises,games_video,3.0,$0,USA,Palmetto,,30268,33.553846,-84.720134
Codemasters,games_video,,$0,USA,Universal City,10 Universal City Plaza,91608,34.138198,-118.360617
PurePlay,games_video,,$15M,USA,San Francisco,,,37.775196,-122.419204
Soundflavor,games_video,17.0,$5.8M,USA,San Francisco,"2339 Third Street, 4th Floor",94107,,
IndieFlix,games_video,,$0,USA,Seattle,4111 E. Madison St.,98112,47.634731,-122.27962
ConcertAttack,games_video,,$0,USA,,,,40.757929,-73.985506
The Television Writers Vault,games_video,3.0,$0,USA,San Diego,3830 Valley Center Drive,92130,33.228284,-116.995957
Cam-Trax Technologies,games_video,,$200k,ISR,Ramat Gan,"4, Bezalel St. ( Roof floor)",,31.046051,34.851612
Teresis Media Management,games_video,5.0,$0,USA,Santa Ana,Digital Media Center,92704,,
Hive7,games_video,5.0,$0,USA,Palo Alto,,94301,37.44296,-122.151198
Monte Cristo,games_video,,$7M,,,,,,
Niwango,games_video,,$0,JPN,Tokyo,Hamacho Center Bldg.,103-007,,
MeDeploy,games_video,,$0,USA,Los Angeles,,91604,34.1395597,-118.3870991
OneScreen,games_video,60.0,$0,USA,Irvine,"310 Commerce, Suite 200",92602,,
snuzu,games_video,,$0,USA,New Haven,,06520,41.3083,-72.9287
TriFame,games_video,,$0,USA,,,,27.698682,-83.804475
eJamming,games_video,,$1.84M,USA,Boca Raton,,,26.367481,-80.114723
bendecho,games_video,,$0,DEU,Munich,Joseph-Dollinger-Bogen 14,80807,48.185529,11.603542
onTV Europe,games_video,,$0,GBR,"Kingston, Surrey",The Quadrant,KT2 6QJ,,
TuneCore,games_video,,$7M,USA,Brooklyn,45 Main Street,11201,40.704382,-73.986572
CCP Games,games_video,360.0,$36.3M,ISL,Reykjavik,Grandagarður 8,101,,
Gamook,games_video,,$1.5M,USA,Menlo Park,2735 Sand Hill Road,94025,37.41924,-122.208414
Dizzywood,games_video,,$2M,USA,,,,37.269175,-119.306607
LyricFind,games_video,15.0,$0,CAN,Toronto,40 Eglinton Ave. East,M4P 3A2,43.7123092,-79.3995384
Knowledge Adventure,games_video,,$26.8M,USA,Torrance,2377 Crenshaw Blvd.,90501,33.8231,-118.328584
Vroengard Academy,games_video,,$0,USA,New York,1745 Broadway,10019,40.765283,-73.982007
Jungle Jam Tv,games_video,1.0,$0,ITA,Bologna,,,44.494446,11.349231
Openfilm,games_video,35.0,$0,USA,Miami,1450 S Miami Ave,33130,25.887462,-80.166155
VideoFetcher,games_video,,$0,USA,,,,37.09024,-95.712891
Sivoo,games_video,8.0,$0,USA,Philadelphia,239 Chestnut St,19147,39.948587,-75.145654
MetaCritic,games_video,,$0,USA,San Francisco,,94105,,
Vostu,games_video,550.0,$48.7M,ARG,Buenos Aires,999 Juana Manso,1107,,
Faneebo,games_video,1.0,$0,USA,Moreno Valley,,92553,33.921969,-117.249376
Zipityzap,games_video,1.0,$0,,,,,,
Marvel Entertainment,games_video,,$0,USA,New York,417 5th. Avenue,10016,40.750576,-73.982713
Vusion,games_video,,$0,USA,Milpitas,1375 McCandless Drive,95035,37.412069,-121.900366
Titan Gaming,games_video,18.0,$1M,USA,Santa Monica,"1351 4th Street, 4th floor",90401,53.544711,-113.515769
Stardoll,games_video,,$10M,SWE,Stockholm,Hudiksvallsgatan 8,113 30,59.345553,18.037611
RootZoo,games_video,9.0,$0,USA,Herndon,c/o Network Solutions,20172-0447,,
Replay Poker,games_video,8.0,$0,,,,,,
WhatYah!,games_video,2.0,$0,AUS,Perth,"Perth, Australia",6001,-41.565586,147.196096
HBO,games_video,,$0,,,,,,
Muzicons,games_video,,$0,,,,,,
Soundwalk,games_video,,$0,USA,New York,508 BROADWAY NO.5,10012,40.722266,-73.999044
Vigster,games_video,,£50k,GBR,London,,,51.500152,-0.126236
ViewNow,games_video,,$0,USA,Encino,16255 Ventura Boulevard,91436,,
Jogli,games_video,4.0,$950k,ISR,Tel-Aviv,32 Alenbi St.,,,
MyTrainer,games_video,4.0,$0,,,,,,
Sport Interactiva,games_video,4.0,$0,USA,Philadelphia,3710 Spruce St,19104,39.951053,-75.197465
Bragosphere,games_video,3.0,$0,USA,Phoenix,1429 E. Charleston Ave.,85022,33.64873,-112.051346
VBS TV,games_video,100.0,$10M,USA,Brooklyn,97 North Tenth Street,11211,40.720764,-73.957968
eBaum's World,games_video,,$0,USA,San Francisco,612 Howard St.,94105,37.786393,-122.3987745
Overstream,games_video,3.0,$0,USA,San Francisco,235 Montgomery St.,94104,37.791391,-122.402859
Mousebreaker,games_video,,$0,GBR,Hilton,Hargate House Farm,DE65 5FJ,,
Fandango,games_video,,$0,USA,Los Angeles,12200 West Olympic Blvd,90064,34.031646,-118.455352
Yaika,games_video,26.0,$0,EST,Tallinn,Fr.R. Kreutzwaldi 4,10120,59.437214,24.768664
Pixelmatic,games_video,10.0,$0,CAN,Vancouver,,,49.263588,-123.138565
Break Media,games_video,,$21.4M,USA,Los Angeles,5757 Wilshire Blvd.,90036,,
SageTV,games_video,,$0,USA,Inglewood,9800 South La Cienega Boulevard,90301,,
My Damn Channel,games_video,10.0,$8.66M,USA,New York,202 W. 40th St.,10018,40.754762,-73.988543
RateMeDateMe,games_video,1.0,$0,,,,,,
Cyloop,games_video,50.0,$0,USA,Miami,"555 Washington Ave, suite 340",33137,25.787252,-80.13183
Trilulilu,games_video,15.0,$0,,,,,,
Planet Green,games_video,,$0,,,,,,
Fourth Story Media,games_video,,$0,USA,New York,Fourth Story Media,10038,,
Liberty Sports Group,games_video,,$0,USA,Bellevue,3626 156th Ave. SE,98006,47.577244,-122.132063
CareerTours,games_video,17.0,$0,USA,Scottsdale,1475 N Scottsdale,85257,33.465063,-111.926112
ATUNN,games_video,,$0,,,,,,
Funtactix,games_video,,$6M,USA,New York,349 5TH AVE,10016,,
Interscope Records,games_video,,$0,USA,Santa Monica,2220 Colorado Avenue,90404,,
LuckySurf,games_video,,$0,USA,South San Francisco,395 Oyster Point Boulevard,94080,37.667304,-122.382792
Mediastay,games_video,,$21.5M,FRA,Levallois Perret,45 rue Jean Jaures,92300,48.891494,2.292728
Veeple,games_video,,$0,USA,Palo Alto,824 San Antonio Road,94303,37.421142,-122.101182
JiggyMe,games_video,,$0,,,,,,
Woldme,games_video,52.0,$1.5M,,,,,,
RCRD LBL,games_video,10.0,$0,USA,New York,"485 Broadway, 3rd Floor",10013,,
Spill,games_video,,$0,USA,New York,143 Varick Street,10013,40.72616,-74.006023
Muso Net,games_video,2.0,$0,,,,,,
NoiseTrade,games_video,,$0,USA,Nashville,510A East Iris Drive,37204,,
Gig Lovers,games_video,1.0,$0,,,,,,
Xtreme Desi Network,games_video,,$0,,,,,,
Celebrity Seats,games_video,,$0,USA,Mount Laurel,702 Wharton Road,08054,39.9418783,-74.9291168
Pixar,games_video,,$0,USA,Emeryville,1200 Park Avenue,94608-3677,,
Hictu,games_video,,$0,,,,,,
GEN247,games_video,12.0,$0,USA,Brooklyn,Bayard Studios,11222,40.727434,-73.9447994
LingusTV,games_video,15.0,$0,ESP,Rubi (Barcelona),"c/Zamora, 40 Bajos 2a",08191,,
9You,games_video,460.0,$100M,CHN,Shanghai,6F Harbour Ring Plaza No.18,200001,,
Chapatiz,games_video,7.0,$530k,FRA,Paris,PÃ©piniÃ¨re Contenus NumÃ©riques,75020,,
SetVid,games_video,4.0,$0,,,,,,
Fluid Entertainment,games_video,,$3.2M,USA,Mill Valley,16 Buena Vista Avenue,94941,37.906966,-122.545763
IGG,games_video,,$4.5M,,,,,,
Numedeon,games_video,,$1M,USA,Brea,417 Associated Rd,92821,33.9133208,-117.8789031
YOOWALK,games_video,10.0,$0,FRA,Paris,28 rue FrÃ©micourt,75015,48.8475487,2.2992348
Universal Studios,games_video,,$0,USA,Orlando,1000 Universal City Plaza,32819-7610,,
Jambo Media,games_video,,$0,USA,Collingswood,24 Lees Avenue,08108,39.914449,-75.066061
Saffron Digital,games_video,,$0,GBR,London,25 Farringdon Street,EC4A 4AB,,
Playlistor,games_video,,$0,,,,,,
PlayMyGame,games_video,,$0,,,,,,
Kickplay,games_video,4.0,$0,USA,Naples,,34113,26.037363,-81.741456
GigMaven,games_video,8.0,$0,USA,New York,615 E 6th St,10009,40.724289,-73.980587
Riot Games,games_video,,$8M,USA,Culver City,10736 Jefferson Blvd.,90230,34.0025911,-118.3942383
Bars For Us,games_video,4.0,$0,USA,Raleigh,,,35.779748,-78.643414
Scavenja,games_video,8.0,$0,USA,San Francisco,"539 Bryant St.,",94107,37.780134,-122.396744
Stratics,games_video,15.0,$0,,,,,,
Mobilenobo,games_video,16.0,$0,CYP,Nicosia,Strovolou 77 Office 204,67312,35.1286571,33.3250705
World Wide Talent Search,games_video,1.0,$0,USA,Providence,N/A,02901,41.83,-71.41
impara,games_video,,$0,DEU,Magdeburg,Listemannstrasse 10,39104,52.137784,11.642487
MixMeister,games_video,,$0,USA,Kirkland,9805 NE 116th Street,98034,47.704028,-122.210339
Le Gourmet TV,games_video,,$0,,,,,,
Future US,games_video,200.0,$0,,,,,,
Kazzong,games_video,8.0,$0,DEU,Munich,Paosostr. 7,81243,48.143941,11.450883
FilmGator,games_video,3.0,$0,,,,,,
FABINET,games_video,5.0,$0,DEU,Leipzig,Hardenbergstr. 78,D-04275,51.318503,12.381492
VISUALPLANT,games_video,6.0,$500k,USA,Los Gatos,200 Winchester Circle,95032,40.738476,-73.998726
Jamglue,games_video,,$0,,,,,,
GenArts,games_video,15.0,$22.4M,USA,Cambridge,955 Massachusetts Ave,02139,42.369007,-71.110276
Lexy,games_video,,$1.71M,USA,San Francisco,589 Howard Street,94105,37.786906,-122.397672
NewsEndorser,games_video,3.0,$0,,,,,,
Stereogum,games_video,,$0,,,,,,
Sportstation,games_video,1.0,$0,GBR,Amersham,,HP6 5AE,51.678254,-0.572355
Sexinema,games_video,,$0,,,,,,
Digimix,games_video,,$0,USA,New York,Main St,10044,,
IBTgames,games_video,11.0,$25k,BGD,Dhaka,"169, North Gulshan Avenue,",1212,23.797333,90.401432
Zaplife,games_video,,$0,,,,,,
GamerVixens,games_video,3.0,$0,,,,,,
LorenzGames,games_video,3.0,$0,,,,,,
Ku6,games_video,,$40M,CHN,Beijing,,,,
12seconds,games_video,3.0,$0,,,,,,
Mightybytes,games_video,8.0,$0,USA,Chicago,5235 N. Clark St.,60640,41.977257,-87.668365
Moondo,games_video,,$6M,,,,,,
Jootware,games_video,2.0,$0,USA,Seattle,1808 Bellevue Ave,98122,47.6141,-122.33763
iStreamPlanet,games_video,50.0,$15M,USA,Las Vegas,6630 West Arby Ave.,89118,36.059658,-115.23671
LOG607,games_video,6.0,$600k,ITA,Roncade TV,Via Sile 41,31056,45.564209,12.436354
blippr,games_video,2.0,$0,,,,,,
MySpace Music,games_video,,$0,USA,Beverly Hills,,,,
Mixcloud,games_video,8.0,$0,GBR,London,Tabernacle Street,,51.5399105,-0.2859795
Anvato,games_video,,$2.55M,USA,Mountain View,465 N. Whisman Road,94043,37.400689,-122.0572
Six Degrees Games,games_video,,$18M,USA,Marina del Rey,4223 Glencoe Boulevard,90292,,
Atari,games_video,400.0,$7.26M,USA,New York,417 Fifth Avenue,10016,,
ngmoco,games_video,150.0,$44.8M,USA,San Francisco,185 Berry Street,94107,37.7705096,-122.4015807
Network Foundation Technologies,games_video,,$1.44M,USA,Century City,10250 Constellation Blvd.,90067,34.057646,-118.417382
Illumina Digital,games_video,55.0,$0,GBR,London,Canham Road,W3 7SR,51.503612,-0.25628
Tribe of Noise,games_video,10.0,$0,NLD,Amsterdam,Wilhelminastraat 184 hs,1054 WT,,
NuZoo Media,games_video,,$0,,,,,,
GSN,games_video,,$0,,,,,,
Tunestory,games_video,,$0,,,,,,
youCharades,games_video,15.0,$0,,,,,,
Pwned,games_video,10.0,$0,,,,,,
CycleBiker,games_video,1.0,$0,,,,,,
imthemusic,games_video,3.0,$0,,,,,,
InChairTV,games_video,,$0,USA,New York,PO Box 1677,10026,40.80405,-73.952833
Popcuts,games_video,,$0,USA,,,,,
Canwest,games_video,,$24M,CAN,Winnipeg,3100-201 Portage Ave,MB R3B 3L7,,
Sandlot Games,games_video,,$0,USA,,,,,
Veveo,games_video,,$14M,USA,Andover,40 Shattuck Road,01810,42.687142,-71.212156
GoYoDeo,games_video,6.0,$150k,USA,Nashville,1305 Clinton Street,37203,36.163965,-86.796377
AccuConference,games_video,,$0,USA,Ft Worth,6300 Ridglea Place,76116,32.724783,-97.416646
Tubefilter,games_video,12.0,$0,USA,Los Angeles,5405 Wilshire Blvd,90036,34.070436,-118.350486
IndieMundo,games_video,2.0,$0,,,,,,
UltiZen,games_video,,$15.5M,CHN,Shanghai,879 Zhong Jiang Rd.,200333,,
LivePlace,games_video,,$0,,,,,,
Snipd,games_video,2.0,$15k,USA,Palo Alto,,,37.437328,-122.159928
ModernMethod,games_video,47.0,$0,USA,Miami,4500 Biscayne Blvd,33137,25.817674,-80.18874
1Cast,games_video,,$0,USA,Kirkland,10519 NE 38th Place,98033,47.656975,-122.205614
DeNA,games_video,2192.0,¥2.21B,JPN,Tokyo,"Shibuya Hikarie, 2-21-1",150-8510,,
Vollee,games_video,,$7.5M,ISR,Hertzilya,1 Hachoshlim Street,46733,,
Groopi,games_video,1.0,$0,GBR,Newbury,,RG14,51.417565,-1.313068
MyElephantBites,games_video,,$0,GBR,Oxford,96 Banbury Road,OX2 6JT,51.7691138,-1.261946
twit+,games_video,1.0,$0,GBR,Corby,,NN18,52.472029,-0.698361
Nonstop Riot,games_video,,$0,USA,Hollywood,4316 Melrose Avenue,90029,,
Gossip Craze,games_video,6.0,$0,,,,,,
OnAir Streaming Networks,games_video,,$0,USA,Irvine,14988 Sand Canyon Avenue 6,92618,,
PopScreen,games_video,,$0,,,,,,
PPTV,games_video,,$287M,CHN,Shanghai,Shanghai Zhangjiang Hi-Tech Park,20000,,
Shattered Reality Interactive,games_video,10.0,$1.1M,USA,San Francisco,490 2nd Street,94107,37.783046,-122.394067
THE Movie Streamer,games_video,2.0,$0,,,,,,
Whooligan,games_video,2.0,$0,,,,,,
Wevod,games_video,8.0,€300k,FRA,Paris,97 rue du Cherche Midi,75006,48.846726,2.321213
GazoPa,games_video,7.0,$0,JPN,"Shinagawa-ku, Tokyo",Gazopa project team,140-8572,,
PlayPhone,games_video,,$95.1M,USA,San Francisco,114 Sansome Street,94104,,
plaYce,games_video,7.0,$0,USA,San Francisco,,94123,37.80204,-122.438231
Sports Data Hub,games_video,1.0,$0,,,,,,
Bojam,games_video,5.0,$0,USA,Palo Alto,540 University Ave,94301,37.448598,-122.158497
360 Sports Software,games_video,1.0,$0,USA,Levittown,P.O. Box 644,11756,40.72267,-73.518183
18D Information Technology China,games_video,50.0,$0,CHN,Shanghai,546 Yuyuan Road,200040,,
Tweegee,games_video,22.0,$3M,ISR,Ramat Gan,B.S.R 1,,32.037363,34.8003705
Vayersoft,games_video,40.0,$0,UKR,Lviv,Lviv,79022,,
Project Amarillo,games_video,5.0,$0,USA,Amarillo,4401 S Coulter St,79109,33.5159679,-101.905099
Utagoe,games_video,15.0,$0,JPN,Tokyo,"5-10-1 #1001, Shinjuku",160-0022,,
NYX Interactive,games_video,,€5M,SWE,Stockholm,Sandhamnsgatan 63 C,115 28,,
Linkua,games_video,5.0,$0,ESP,,,,,
2pad,games_video,6.0,$0,ISR,Raanana,Ravutsky 29,43220,,
Ticketsreview,games_video,,$0,,,,,,
Kidos,games_video,,$200k,USA,New York,"355 E. 72nd St., Suite 4E",10021,40.768058,-73.956599
Toobla,games_video,,$0,,,,,,
Gamelet,games_video,7.0,$220k,TWN,Taipei,"Suite 561, 5F, No. 19-11",,,
Hangout Industries,games_video,,$12M,USA,Boston,110 Chauncy Street,02111,42.352835,-71.0609612
Groove Club,games_video,5.0,$83k,USA,Lyndhurst,"552 Valley Brook Ave, Suite 1",07071,40.809076,-74.119948
Apptism,games_video,,$0,,,,,,
GoYoDeo,games_video,6.0,$150k,USA,Nashville,1305 Clinton Street,37203,36.163965,-86.796377
AccuConference,games_video,,$0,USA,Ft Worth,6300 Ridglea Place,76116,32.724783,-97.416646
Tubefilter,games_video,12.0,$0,USA,Los Angeles,5405 Wilshire Blvd,90036,34.070436,-118.350486
IndieMundo,games_video,2.0,$0,,,,,,
UltiZen,games_video,,$15.5M,CHN,Shanghai,879 Zhong Jiang Rd.,200333,,
LivePlace,games_video,,$0,,,,,,
Snipd,games_video,2.0,$15k,USA,Palo Alto,,,37.437328,-122.159928
ModernMethod,games_video,47.0,$0,USA,Miami,4500 Biscayne Blvd,33137,25.817674,-80.18874
1Cast,games_video,,$0,USA,Kirkland,10519 NE 38th Place,98033,47.656975,-122.205614
DeNA,games_video,2192.0,¥2.21B,JPN,Tokyo,"Shibuya Hikarie, 2-21-1",150-8510,,
Vollee,games_video,,$7.5M,ISR,Hertzilya,1 Hachoshlim Street,46733,,
Groopi,games_video,1.0,$0,GBR,Newbury,,RG14,51.417565,-1.313068
MyElephantBites,games_video,,$0,GBR,Oxford,96 Banbury Road,OX2 6JT,51.7691138,-1.261946
twit+,games_video,1.0,$0,GBR,Corby,,NN18,52.472029,-0.698361
Nonstop Riot,games_video,,$0,USA,Hollywood,4316 Melrose Avenue,90029,,
Gossip Craze,games_video,6.0,$0,,,,,,
OnAir Streaming Networks,games_video,,$0,USA,Irvine,14988 Sand Canyon Avenue 6,92618,,
PopScreen,games_video,,$0,,,,,,
PPTV,games_video,,$287M,CHN,Shanghai,Shanghai Zhangjiang Hi-Tech Park,20000,,
Shattered Reality Interactive,games_video,10.0,$1.1M,USA,San Francisco,490 2nd Street,94107,37.783046,-122.394067
THE Movie Streamer,games_video,2.0,$0,,,,,,
Whooligan,games_video,2.0,$0,,,,,,
Wevod,games_video,8.0,€300k,FRA,Paris,97 rue du Cherche Midi,75006,48.846726,2.321213
GazoPa,games_video,7.0,$0,JPN,"Shinagawa-ku, Tokyo",Gazopa project team,140-8572,,
PlayPhone,games_video,,$95.1M,USA,San Francisco,114 Sansome Street,94104,,
plaYce,games_video,7.0,$0,USA,San Francisco,,94123,37.80204,-122.438231
Sports Data Hub,games_video,1.0,$0,,,,,,
Bojam,games_video,5.0,$0,USA,Palo Alto,540 University Ave,94301,37.448598,-122.158497
360 Sports Software,games_video,1.0,$0,USA,Levittown,P.O. Box 644,11756,40.72267,-73.518183
18D Information Technology China,games_video,50.0,$0,CHN,Shanghai,546 Yuyuan Road,200040,,
Tweegee,games_video,22.0,$3M,ISR,Ramat Gan,B.S.R 1,,32.037363,34.8003705
Vayersoft,games_video,40.0,$0,UKR,Lviv,Lviv,79022,,
Project Amarillo,games_video,5.0,$0,USA,Amarillo,4401 S Coulter St,79109,33.5159679,-101.905099
Utagoe,games_video,15.0,$0,JPN,Tokyo,"5-10-1 #1001, Shinjuku",160-0022,,
NYX Interactive,games_video,,€5M,SWE,Stockholm,Sandhamnsgatan 63 C,115 28,,
Linkua,games_video,5.0,$0,ESP,,,,,
2pad,games_video,6.0,$0,ISR,Raanana,Ravutsky 29,43220,,
Ticketsreview,games_video,,$0,,,,,,
Kidos,games_video,,$200k,USA,New York,"355 E. 72nd St., Suite 4E",10021,40.768058,-73.956599
Toobla,games_video,,$0,,,,,,
Gamelet,games_video,7.0,$220k,TWN,Taipei,"Suite 561, 5F, No. 19-11",,,
Hangout Industries,games_video,,$12M,USA,Boston,110 Chauncy Street,02111,42.352835,-71.0609612
Groove Club,games_video,5.0,$83k,USA,Lyndhurst,"552 Valley Brook Ave, Suite 1",07071,40.809076,-74.119948
Apptism,games_video,,$0,,,,,,
Muzui,games_video,,$0,,,,,,
Shiftpop,games_video,2.0,$0,,,,,,
Endavo Media and Communications,games_video,15.0,$0,USA,Atlanta,6 West Druid Hills Drive NE,30329,33.8317964,-84.3391231
Vidiac,games_video,20.0,$0,,,,,,
Brightstorm,games_video,,$6M,USA,San Francisco,"685 Market St. Street, Suite 270",94105,37.804619,-122.371203
Visionary Networks,games_video,,$0,USA,Portland,7412 SW Beaverton Hillsdale Highway,97225,,
GeogTV,games_video,4.0,$0,,,,,,
OUTSHOUTS,games_video,,$0,USA,Menlo Park,,,37.48413,-122.169472
Club Scene Network,games_video,36.0,$225k,,,,,,
TWIOA,games_video,5.0,$0,USA,Toledo,,,41.65292,-83.577782
Fat Dalmation,games_video,8.0,$0,ISR,Rishpon,Hashaked 13a,46915,,
Wikeez,games_video,50.0,$250k,LBN,Beirut,"3rd Floor, Feghali Building",,,
Heatwave Interactive,games_video,,$12.6M,USA,Austin,Tower of the Hills,78750,30.297775,-97.762921
PlayCrafter,games_video,,$0,,,,,,
YoYo Games,games_video,26.0,$0,GBR,Dundee,River Court 5,DD1 3JT,,
Equedia,games_video,,$0,CAN,Vancouver,Suite 1400 - 400 Burrard Street,V6C 3G2,49.2871668,-123.1169693
schmedley,games_video,,$0,,,,,,
PlisTube,games_video,,$0,COL,Bogota,Diag 27 2-13,,,
MP3Tunes,games_video,,$0,USA,San Diego,5960 Cornerstone Court W,92121,32.895267,-117.191342
Radio One Llama,games_video,10.0,$1M,USA,Champaign,,,40.1128,-88.271074
Whereismyboss,games_video,100.0,$0,IND,,,,,
Videofropper,games_video,3.0,$0,IND,Kolkata,"108, Rajdanga Road",700037,22.51328,88.387327
SnackFeed,games_video,2.0,$0,,,,,,
BuzzPal,games_video,1.0,$0,,,,,,
FanPrice,games_video,,$0,USA,Los Angeles,11693 San Vicente Blvd,90049,38.233786,-122.636071
ReplayGamez,games_video,10.0,$0,USA,Flowermound,,,29.550027,-95.693347
Absolute Punk,games_video,,$0,,,,,,
Ilse media,games_video,,$0,NLD,Amsterdam,Rijnsburgstraat 11,1059 AT,,
Musicreview,games_video,5.0,$0,IRL,dublin,14 cherryorchard park,d10,53.335773,-6.371726
Denook,games_video,2.0,$0,USA,Miami,14707 SW 37 Terrace,33185,25.733027,-80.432061
SportsGenie,games_video,,$0,USA,Los Angeles,PO Box 515381,90051-6681,34.0522,-118.2429
One Season,games_video,,$3.75M,USA,San Francisco,,,37.775196,-122.419204
VooVeo,games_video,1.0,$0,,,,,,
MXP4,games_video,15.0,$17M,FRA,Paris,54 Rue Paradis,75010,,
TutCast,games_video,2.0,$0,,,,,,
Fusion Creative Studios,games_video,12.0,$0,USA,Branford,5-B Tipping Drive,06405,41.303696,-72.768842
Noteflight,games_video,4.0,$0,USA,,Hamilton St,02139,,
K'NEX Industries,games_video,,$0,USA,Hatfield,2990 Bergey Road,19440 0700,,
Meteor Games,games_video,70.0,$0,USA,Beverly Hills,,90210,34.09316,-118.378335
Apaja,games_video,44.0,€1.75M,FIN,Helsinki,Mikonkatu 19,00100,60.171821,24.945167
THQ,games_video,,$0,USA,Agoura Hills,29903 Agoura Road,91301,34.145984,-118.776083
BrushVideo,games_video,1.0,$0,BEL,,,,,
PlayNetwork,games_video,122.0,$0,,,,,,
Sceneclips,games_video,4.0,$0,USA,Los Angeles,,90017,34.05438,-118.26728
DigitalDeejay,games_video,12.0,$0,FRA,CALUIRE ET CUIRE,19 MONTEE DE L EGLISE,69300,45.792717,4.830048
Mybandstock,games_video,19.0,$0,USA,Los Angeles,3475 Ben Lomond Place,90027,42.2802675,-83.7420579
Large Animal Games,games_video,,$0,USA,New York,115 W. 29th St. 11th fl,10001,,
echomusic,games_video,,$0,USA,Nashville,1101 17th Avenue South,37212,,
Booyah,games_video,,$59.5M,USA,San Francisco,"139 Townsend Street, 3rd Floor",94107,37.420728,-122.2103414
TVT Records,games_video,,$0,USA,New York,23 East 4th Street,10003,,
Good Call Sports,games_video,,$0,USA,Tucson,2818 N. Campbell Ave.,85719,32.258001,-110.942493
GotGame,games_video,15.0,$1M,USA,San Francisco,1 Bluxome Place,94107,37.77772,-122.395785
Klection,games_video,1.0,$0,,,,,,
The Game Creators,games_video,7.0,$25k,GBR,"Macclesfiled, Cheshire",4 Nancy View,SK10 5QG,53.296176,-2.092073
Karo Internet,games_video,10.0,€850k,DEU,Cologne,KÃ¶lner str 89,50859,50.947112,6.842133
Xtranormal,games_video,0.0,$0,CAN,Montreal,5555 av.Casgrain,H2T 1Y1,,
For Your Imagination,games_video,10.0,$1.3M,USA,New York,22 West 27th Street,10001,40.744594,-73.989698
PokerDIY,games_video,1.0,$0,,,,,,
PhotoFunia,games_video,4.0,$0,,,,,,
deltatre,games_video,225.0,$0,ITA,Torino,via millio 41,10141,45.058576,7.649614
SureSpeak,games_video,8.0,$1.6M,USA,Chicago,29 S Lasalle St,60603,41.889183,-87.632519
Sonichall,games_video,2.0,$0,CAN,Vancouver,,,49.263588,-123.138565
The Artist Group,games_video,,$0,CAN,Toronto,847 Adelaide St. West,M6J 3X1,,
SonicLiving,games_video,10.0,$0,USA,San Francisco,1211 Folsom St,94103,37.8448035,-122.290897
Games2Win,games_video,,$13M,IND,"Tardeo,Mumbai","42, Film Center,",,18.9742904,72.8127265
BAM Studios,games_video,6.0,$0,USA,Chicago,One East Erie Street,60611,41.893622,-87.627423
Indiagames,games_video,300.0,$0,IND,Navi-Mumbai,"Indiagames Ltd., Vishwaroop IT Park, Vashi International Info-Tech Park,",400705,,
Bright Things,games_video,,$800k,GBR,Wiltshire SP3 6PY,Ashley Wood,SP3 6PY,,
NetTags,games_video,1.0,$0,,,,,,
Madhouse Media,games_video,,$0,IND,Delhi,East of Kailash,110065,,
Blizzard Entertainment,games_video,,$0,USA,Irvine,P.O. Box 18979,92623,33.6695,-117.8222
telewebber,games_video,3.0,$0,DEU,Bretten,Dr. Alfred-Neff-Str. 15,75015,49.03767,8.714079
Atlantic Records,games_video,,$0,USA,New York,1290 Avenue of the Americas,10104,,
WebCeleb,games_video,3.0,$0,,,,,,
Star Fever Agency,games_video,5.0,$550k,CAN,Quebec,"410, boul Charest,",G1K 8M4,46.8081938,-71.2373393
Singing Fish,games_video,,$0,,,,,,
Awdio,games_video,,€1.5M,FRA,Paris,33 rue Stephenson,75018,48.887534,2.356288
Vividas,games_video,,$0,AUS,Victoria,157 High Street,3181,,
Nullsoft,games_video,,$0,USA,,,,,
MovieFone,games_video,,$0,USA,Chicago,50 S La Salle St,60603,,
Totlol,games_video,0.0,$0,,,,,,
Indomite Music,games_video,4.0,$0,ISR,Ramat Gan,,,,
Yobler,games_video,15.0,$0,ROM,Bucharest,Str Lanariei nr 130-132,040324,,
Rocudo,games_video,6.0,$0,IRL,,,,,
Reflexive Entertainment,games_video,,$0,USA,Lake Forest,21068 Bake Parkway,92630,,
38 Studios,games_video,49.0,$0,USA,Maynard,5 Clock Tower Place,01754,42.431652,-71.455658
Mobuzz,games_video,,$0,,,,,,
Citizenside,games_video,12.0,€1.04M,FRA,Paris,Level 5,75003,48.8926988,2.3179601
JamLegend,games_video,,$2M,,,,,,
Zadby,games_video,,$0,USA,Reston,# 11480 Commerce Park Dr,20191,38.947914,-77.342896
SPIL GAMES,games_video,300.0,$0,NLD,Hilversum,Arendstraat 23,1223RE,52.220726,5.198824
Compete-At,games_video,12.0,$0,USA,Bethesda,4905 Del Ray Ave,20814,38.9897861,-77.0989247
Global Media Exchange,games_video,,$0,,,,,,
inDplay,games_video,,$0,USA,Venice,P.O. Box 2698,90294,33.9905,-118.4595
HourVille,games_video,,$0,USA,Austin,,,,
TeacherTube,games_video,25.0,$0,USA,Melissa,,75454,,
Verismo Networks,games_video,,$17M,USA,Mountain View,1451 Grant Road #200,94040,37.3874345,-122.051793
Summit Entertainment,games_video,,$0,USA,Santa Monica,1630 Stewart Street,90404,,
Plugola,games_video,2.0,$0,USA,Chicago,1414 N. Noble St.,60642,41.907542,-87.66299
World On-Demand,games_video,45.0,$0,JPN,"Shinagawa-ku, Tokyo","Saishou Bldg 10F,",ã€’140-0031,,
TubeSpree,games_video,11.0,$0,USA,San Francisco,601 Van Ness Ave,94102-3200,37.781386,-122.421406
PlayerAuctions,games_video,30.0,$0,USA,Los Angeles,,,34.052187,-118.243425
ZOOZ Mobile,games_video,5.0,$0,USA,Atlanta,75 Fifth Street NW.,30308,33.961646,-84.368975
One True Media,games_video,,$14M,USA,Redwood City,955 - A Charter Street,94063,37.485824,-122.212095
Machinima,games_video,,$49.6M,USA,West Hollywood,8441 Santa Monica Blvd,90069,34.0906409,-118.3740745
FamilyCam Limited,games_video,5.0,$0,GBR,Cambridge,The Old Granary,CB24 3AR,,
pickrset,games_video,1.0,$100k,USA,San Clemente,638 Camino De Los Mares,92673,33.4590557,-117.6513647
Make'n Movies,games_video,1.0,$0,,,,,,
MovieFlix,games_video,2.0,$0,USA,Los Angeles,8108 W 4th St.,90048,34.070146,-118.365526
Backstage Technologies,games_video,17.0,$0,CAN,"Victoria, BC",626A Fisgard Street,V8W 1R6,48.429856,-123.3558507
Listal,games_video,1.0,$0,,,,,,
KIXEYE,games_video,,$19M,USA,San Francisco,333 Bush Street,94104,,
Miniclip,games_video,140.0,$0,CHE,,,2000,,
Fingertime,games_video,,$0,GBR,Bournemouth,Fingertime Ltd,BH6 5BQ,,
Fusionet24,games_video,51.0,$0,GBR,Castleford,Fusionet24,wf101tr,,
Xendex Holding,games_video,,$5.8M,AUT,Vienna,Mariahilfer Strasse 116/3,1070,,
InnovSoft Consulting Limited,games_video,7.0,$0,CAN,Laval,3860 Notre Dame,H7V 1S1,45.5411602,-73.7481222
Zepol,games_video,,$0,USA,Edina,7455 France Avenue South,55435,44.8672747,-93.3287493
Pilotlite,games_video,5.0,$0,USA,New York,81 Worth Street,10013,40.7166822,-74.005398
Wizzgo,games_video,11.0,$2.5M,FRA,Paris,,,,
Offbeat Creations,games_video,,$0,USA,Bellevue,10500 NE 8th Street,98004,,
MP3WhiteLabel,games_video,2.0,$0,,,,,,
Kompoz,games_video,2.0,$0,USA,Miami,13015 SW 89 PLACE #119,33176,25.6482589,-80.3399908
Double D Pools,games_video,2.0,$0,,,,,,
Away,games_video,5.0,$0,GRC,Athens,Kerasountos 6,11528,37.9815443,23.7569904
TeenHollywood,games_video,3.0,$0,CAN,Calgary,104-1240 Kensington Rd NW,T2N 4X7,51.052508,-114.0916328
CheatCodes,games_video,,$0,USA,Maple Valley,,98038,47.3661111,-122.0447222
MadWaves,games_video,8.0,$0,FRA,Sophia Antipolis,1 Traverse des Brucs,06560,43.6273729,7.0524451
BeatPick,games_video,,$0,GBR,London,,,51.5001524,-0.1262362
Book a Lesson,games_video,2.0,$0,USA,Minneapolis,4305 Mackey Ave,55424,44.923088,-93.34806
Masstech Group,games_video,,$0,CAN,Richmond Hill,2 East Beaver Creek,L4B 2N3,,
Mix2r,games_video,,$0,,,,,,
MixMatchMusic,games_video,12.0,$0,USA,Burlingame,1325 Howard Avenue,94010,37.5768841,-122.3462137
Valu Valu,games_video,3.0,$0,USA,Seattle,24 Roy St,98109,47.6254784,-122.3564234
learnpipe,games_video,5.0,$0,IRL,Cork,"B6, Rochestown Business Centre",,,
Knockout Bids,games_video,3.0,$0,AUS,,,,,
Elovix,games_video,2.0,$0,,,,,,
VIDDIX,games_video,5.0,€100k,NLD,Utrecht,Padualaan 8,3584CH,52.0848526,5.1682449
Gemzies,games_video,3.0,$0,NLD,Amsterdam,Anthony Fokkerweg 21,1059 CN,52.342938,4.8419083
Southern California Public Radio,games_video,1000.0,$0,USA,Pasadena,1570 East Colorado Boulevard,91106-2003,,
Geocade,games_video,,$0,USA,Cambridge,One Broadway,02142,42.362856,-71.083762
Build-A-Bear Workshop,games_video,,$0,USA,Saint Louis,1954 Innerbelt Business Center Drive,63114,,
Donogo,games_video,0.0,$0,,,,,,
ScienceHack,games_video,1.0,$0,,,,,,
iViioo,games_video,10.0,$0,USA,,,94539,37.5340363,-121.9131761
SongSeek,games_video,3.0,$0,,,,,,
Optimate Networks,games_video,7.0,$0,USA,San Francisco,"451 Montgomery St, 3rd Fl",94104,,
Twones,games_video,6.0,$500k,NLD,Amsterdam,Vijzelstraat 68-72,1017HL,52.3630898,4.8920901
Tengaged,games_video,1.0,$15k,ESP,Barcelona,C/Pedrell,08032,41.4241228,2.1634249
DanceShowoff,games_video,,$0,USA,Irvine,,,33.671428,-117.791423
GoGo Lingo,games_video,,$0,USA,Los Angeles,,,34.052187,-118.243425
Know Your Venue,games_video,2.0,$0,USA,Tampa,,,27.98141,-82.451141
Gawkk,games_video,3.0,$0,USA,New York,258 W. 71 Street,10023,40.778635,-73.984438
artaculous,games_video,2.0,$10k,GBR,Milton Keynes,76 High Street,MK16 8AQ,52.13244,-0.779005
iKultur,games_video,4.0,$0,,,,,,
bopaboo,games_video,10.0,$0,,,,,,
FilmSuggest,games_video,2.0,$0,USA,Oakland,360 22nd Street,94612,37.81098,-122.265978
Sky Italia,games_video,,$0,ITA,Rome,via Salaria 1021,00138,,
Oberon Media,games_video,,$36M,USA,New York,100 Broadway,10005,,
WidgetCircles,games_video,2.0,$0,,,,,,
Indee,games_video,3.0,$0,USA,San Francisco,1750 Montgomery St,94133,37.8053241,-122.4052761
Creative Artists Agency,games_video,,$0,USA,Los Angeles,2000 Avenue of the Stars,90067,34.0586832,-118.4158174
Communiversity,games_video,3.0,$0,USA,,,,,
Why Hasn't He?,games_video,0.0,$0,USA,New York City,601 W. 57th Street,10019,40.7703479,-73.9914834
GREE,games_video,700.0,¥464M,JPN,Tokyo,"Roppongi-Hills Mori Tower, 6-10-1, Roppongi",106-0032,,
RGB Networks,games_video,125.0,$52M,USA,Sunnyvale,390 West Java Drive,94089,37.4123706,-122.0216271
MyOtherDrive,games_video,5.0,$1M,USA,Dayton,130 W 2nd Street,45402,39.7605421,-84.1949463
Did it Leak,games_video,7.0,$0,CAN,Vancouver,598 Smithe,,49.27964,-123.1204046
Fliiby,games_video,3.0,$100k,USA,Wilmington,,,,
GlassBox,games_video,,$6.21M,CAN,"Mississauga, ON",2196 Dunwin Drive,L5L 1C7,43.5351549,-79.6735074
Robotgalaxy,games_video,,$12M,USA,New York,"41 Union Square West,",10003,40.737216,-73.990947
Fotohoo,games_video,2.0,$0,USA,New York,,,40.756054,-73.986951
Mobitween,games_video,,$0,FRA,Reuil-Malmaison,"11, rue du Docteur Guionis",92500,48.8836859,2.181018
Technicolor,games_video,,$0,USA,Hollywood,6040 Sunset Blvd.,90028,,
Drum Channel,games_video,15.0,$0,USA,Oxnard,900 Del Norte Blvd,93030,34.210099,-119.12636
Box Office Mojo,games_video,,$0,USA,,,,,
Remixin,games_video,2.0,$0,USA,Beverly Hills,8601 Wilshire Blvd Suite 501,90211,34.066118,-118.378606
Koblo,games_video,4.0,$0,DNK,Hasselager,,,56.1042597,10.087173
RealityWanted,games_video,5.0,$0,USA,Manhattan Beach,1601 N Sepulveda Blvd. Ste#360,90266,33.889965,-118.396254
PIKAGame,games_video,4.0,$0,,,,,,
Jobvue,games_video,1.0,$0,USA,Copley,4143 Westbourne Blvd,44321,41.1208235,-81.6643523
DBL LLC,games_video,8.0,$0,USA,Spartanburg,10 Reeves Court,29301,34.964436,-81.968024
Babelio,games_video,5.0,$0,,,,,,
Hunchers,games_video,4.0,$0,,,,,,
Twiturm,games_video,4.0,$0,USA,Tampa,,,,
Socialbomb,games_video,6.0,$240k,USA,New York,30 E 23rd St,10010,,
Vibeex,games_video,1.0,$0,FRA,Paris,,,48.8566667,2.3509871
spillnett,games_video,1.0,$0,NOR,BodÃ¸,PB 16,8000,,
Tudou,games_video,,$126M,CHN,,,,,
CareerPlayer,games_video,5.0,$0,GBR,London,,,51.5001524,-0.1262362
Sports Reference,games_video,4.0,$0,USA,Philadelphia,6757 Greene St,19119,40.0450165,-75.19373
RazeTheWorld,games_video,6.0,$0,,,,,,
G10 Entertainment,games_video,,$38M,,,,,,
Wazoo Sports,games_video,,$2M,USA,London,P.O. Box 3289,40743,37.1286,-84.0834
Kramaley Games,games_video,5.0,$0,GBR,London,12A Eccleston Street,SW1W 9LT,51.4944999,-0.1479318
Kuma Reality Games,games_video,60.0,$0,,,,,,
CreationFlow,games_video,4.0,$150k,ARG,Ciudad de Buenos Aires,Vera 15 3-B,1414,-34.6028583,-58.4339539
Playlogic,games_video,,$19.3M,NLD,Amsterdam,Playlogic International N.V. World Trade Centre,1077,,
Digiprof,games_video,1.0,$0,FRA,Chirens,228 Route des Jolis,38850,45.4092403,5.5511813
ggplaylist,games_video,,$0,,,,,,
mysoogal,games_video,1.0,$0,ARA,none,none,unlisted,,
Movie Sumo,games_video,2.0,$0,,,,,,
Heyzap,games_video,,$7.97M,USA,San Francisco,"3rd Floor, 251 Kearny Street",94108,37.7905538,-122.4041485
Brash Entertainment,games_video,,$400M,,,,,,
Filmed Media,games_video,10.0,$0,GBR,London,58 Salusbury Road,NW6 6NP,51.5359008,-0.2055081
AudioCrunch,games_video,2.0,$0,,,,,,
Shanghai Media Group,games_video,,$12M,,,,,,
Mobile Digital Media,games_video,,$2M,,,,,,
Spoonfed,games_video,16.0,£477k,GBR,London,Studio 16,N1 3LY,51.7577453,-1.2186724
Entropy Computational Services,games_video,5.0,$0,ESP,Madrid,"C/ Madrid 10, 2-B",28901,40.4380872,-3.6760635
Vidium,games_video,7.0,$0,ESP,Getafe,Madrid 102 4ÂºB,28902,,
id Software,games_video,,$0,USA,Richardson,1500 North Greenville Avenue,75081,,
Blognawa,games_video,,$0,,,,,,
Total Music Group,games_video,,$0,,,,,,
Mappdev,games_video,1.0,$0,,,,,,
Telia Musik,games_video,,$0,,,,,,
Kerchoonz,games_video,,$0,GBR,"Broughty Ferry, Dundee","Spalding House,",DD5 1AJ,,
Total Pop Star,games_video,,$0,USA,Beverly Hills,"468 North Camden Drive,",90210,34.0698912,-118.405325
Dilettante Music,games_video,,$0,GBR,London,Suite 5,W1U 7LS,,
Musebin,games_video,,$0,,,,,,
Moshable,games_video,,$0,,,,,,
Songness,games_video,,$0,USA,Shelbyville,112 Public Square East,37160,35.4826936,-86.4600396
Get Closer,games_video,,$0,GBR,London,Film House 142 Wardour Street,W1F 8LN,,
MusicMakesFriends,games_video,,$0,,,,,,
Simple Lifeforms,games_video,10.0,$140k,IRL,Dublin,Guinness Enterprise Centre,Dublin 8,,
Konami Digital Entertainment,games_video,,$0,,,,,,
Mobigame,games_video,10.0,$0,,,,,,
GAMEVIL,games_video,,$80M,KOR,Seoul,4th FL. Samsung IT Valley 197-5,152-848,,
Chillingo,games_video,,$0,GBR,Macclesfield,Beechfield House,SK11 0LP,,
TransGaming,games_video,80.0,$500k,,,,,,
D2C Games,games_video,,$7.5M,USA,San Mateo,1810 Gateway Drive,94404,,
Gogogic,games_video,22.0,$0,ISL,ReykjavÃ­k,Laugavegi 182,105,,
Fight Launch,games_video,5.0,$0,USA,Columbus,1275 Kinnear Road,43212,,
SAMP2,games_video,10.0,$0,NLD,Bilthoven,van Goijenlaan 45,3723GN,52.1424695,5.2092075
Video-Alerts,games_video,1.0,$0,,,,,,
Cinelan,games_video,,$0,USA,New York,"407 Broome Street,",10013,40.720699,-73.998107
Independent Comedy Network,games_video,,$0,USA,Santa Monica,1323-A Third Street Promenade,90401,34.0163969,-118.4969939
NetStreams,games_video,,$18.2M,USA,Austin,3600 W. Parmer Lane,78727,30.424305,-97.709981
C3L3B Digital,games_video,,$3M,USA,Calabasas,5016 Parkway Calabasas,91302,34.1549426,-118.6545471
Gamestop,games_video,,$0,USA,Grapevine,625 Westport Parkway,76051,,
Sabi,games_video,5.0,$0,USA,Kirkland,10827 NE 68th Street,98033,47.6667342,-122.1958685
Comixology,games_video,,$3.47M,USA,New York,159 West 25th Street 9th floor,10010-4436,40.740512,-73.987794
Aurora Feint,games_video,,$7.66M,USA,Burlingame,330 Primrose Road,94010,,
Ohai,games_video,,$6M,,,,,,
LoomTV,games_video,10.0,$0,DEU,Neuss,Michaelstr. 6,41460,51.1977634,6.6906699
Dog Files,games_video,3.0,$0,USA,Cranford,,07016,40.6569929,-74.3059546
SocialRoster,games_video,5.0,$0,USA,Baltimore,,21202,39.2949894,-76.6094997
StuVu,games_video,,$0,,,,,,
Gamervision,games_video,,$10M,USA,Doylestown,4030 Skyron Drive,18902,40.3321202,-75.1184485
C9 Media,games_video,,$750k,,,,,,
Openviv,games_video,3.0,$0,,,,,,
i-Jet Media,games_video,150.0,$0,USA,Sunnyvale,440 N Wolfe Rd,94085,37.384239,-122.012475
Wisevid,games_video,10.0,$0,CAN,Toronto,,,43.670233,-79.386755
RealD,games_video,,$72M,USA,Beverly Hills,"100 North Crescent Dr.,",90210,34.067554,-118.395658
TV Games Network,games_video,,$0,,,,,,
Music For Busy People,games_video,3.0,$0,USA,New York City,Avenue C,10009,40.727763,-73.976169
Bandloop,games_video,2.0,$0,,,,,,
BroadWare Technologies,games_video,,$0,USA,Santa Clara,3333 Octavius Drive,95054,,
Natasha,games_video,,$0,JPN,Tokyo,"Shimokitazawa 2-28-7, 2F",155-0031,,
DigiDock,games_video,,$0,JPN,Tokyo,6-10-202 Sumiyosichou,162-0065,,
Bandbox,games_video,,$0,USA,,,37067,,
Shacknews,games_video,,$0,,,,,,
Tutpup,games_video,,$0,,,,,,
Selatra,games_video,,€4M,IRL,Cork,4500 Airport Business Park,,51.8717115,-8.5010032
MediaNama,games_video,,$0,IND,Delhi,20 A Rajpur Road,110054,28.682051,77.2189325
Zibutu,games_video,1.0,$0,,,,,,
whistleBox,games_video,,$2.3M,USA,Brooklyn,80 North 7th Street,11211,40.7197125,-73.9607545
Tweetube,games_video,2.0,$0,,,,,,
Tvinci,games_video,50.0,$6.1M,ISR,Tel Aviv,52 A' HaMasger st.,61574,,
MindSmack,games_video,54.0,$0,USA,New York,311 West 43rd Street,10036,40.758492,-73.989987
15secondTV,games_video,4.0,$0,GBR,Lancaster,Infolab21,LA1 4WA,,
The Scene,games_video,4.0,$0,,,,,,
Minojo,games_video,1.0,$0,,,,,,
Mugasha,games_video,,$0,USA,Portland,,,,
VLADIcast,games_video,3.0,$0,,,,,,
CollegeClickTV,games_video,,$0,USA,New York,One Penn Plaza,10119,40.7495594,-73.9916617
Nexx Studio,games_video,3.0,$315k,MYS,Subang Jaya,Empire Soho,47500,,
Fizzy Software,games_video,4.0,$0,IND,Gurgaon,304 Millennium Plaza Tower B,122002,,
InterneTV,games_video,2.0,$0,,,,,,
Frenzoo,games_video,7.0,$1M,HKG,Hong Kong,19B,00000,,
Mayomann,games_video,6.0,$0,CAN,Victoria,2352,V8R 2M9,,
KISS Intelligent Systems,games_video,,$0,,,,,,
MegaZebra,games_video,,$0,DEU,Munich,Brienner StraÃŸe 21,80333,48.1432705,11.4737468
AutomatedGamer,games_video,2.0,$0,,,,,,
Blip'd,games_video,2.0,$0,USA,Los Angeles,8391 Beverly Blvd,90048,34.0760614,-118.3729534
BASH Gaming,games_video,25.0,$1M,USA,Fremont,,94555,37.5561712,-122.0780632
Geewa,games_video,60.0,€1.5M,CZE,Prague 8,Sokolovska 84,18600,50.0938491,14.4505336
Turtle Entertainment,games_video,175.0,$0,DEU,Cologne,Siegburger Str. 189,50679,50.9272941,6.9764978
Major League Gaming,games_video,45.0,$69M,USA,New York,3 Park Avenue,10016,40.752672,-73.97593
Culture Unplugged Studios,games_video,45.0,$0,IND,Pune,"Office #2, 4th Floor, Oakwood Premier,",411036,,
MediaRich,games_video,8.0,$0,USA,San Antonio,918 S Alamo,78205,29.414897,-98.48972
Quickflix,games_video,75.0,$10M,AUS,Perth,"Level 4, 178 St Georges Terrace",6000,,
Video Ezy,games_video,,$0,,,,,,
Dodreams,games_video,6.0,€750k,FIN,,Erottajankatu 15-17,00130,60.1659819,24.9438568
SwitchGames,games_video,3.0,$0,USA,New York,200 E10th St,10013,40.7297485,-73.9867361
WheelsTV,games_video,,$0,USA,Acton,289 Great Road,01720,,
BCmoney,games_video,2.0,$0,CAN,Halifax,290 Larry Uteck blvd,B3M 0E9,,
Fliggo,games_video,2.0,$0,USA,San Francisco,,,37.775196,-122.419204
Phlook,games_video,,$0,,,,,,
Uwink,games_video,,$0,USA,Van Nuys,16106 Hart Street,91406,,
Metacast,games_video,,$0,JPN,Tokyo,"NGA Minami Aoyama Bldg. XII 4F, Aoyama 7-3-1",107-0062,,
Obsessed TV,games_video,2.0,$0,,,,,,
Visual Avenue,games_video,2.0,$0,USA,Fair Lawn,54 Kingsland Court,07410,40.9416904,-74.1260363
Tomato Picker,games_video,,$0,,,,,,
Embedr,games_video,,$0,,,,,,
M3X Media,games_video,,$10.5M,USA,West Palm Beach,,,26.72868,-80.099946
Digital Fountain,games_video,,$0,,,,,,
Crispy Gamer,games_video,,$8.25M,USA,New York,35 West 36th Street,10018,40.750597,-73.985273
Champions365,games_video,,$0,,,,,,
Scene This?,games_video,2.0,$0,,,,,,
Spadester,games_video,45.0,$0,,,,,,
Fragegg,games_video,8.0,€150k,AUT,Vienna,Daringergasse 30/1,1190,,
Unity Technologies,games_video,200.0,$17.5M,USA,San Francisco,795 Folsom,94107,55.6924605,12.530107
Sharpeffect,games_video,3.0,$0,,,,,,
Fabchannel,games_video,,$0,,,,,,
PBMCube,games_video,10.0,$0,USA,Phoenix,8111 N 19th Ave,85021,33.554943,-112.098592
VocalBuzz,games_video,3.0,$0,,,,,,
UQ Events,games_video,5.0,$0,CAN,North Vancouver,4245 Madeley Rd.,V7N 4E1,49.3484032,-123.0778974
Gamecarte,games_video,5.0,$0,,,,,,
Farbflut Entertainment,games_video,30.0,$0,DEU,Hamburg,Heimhuderstr. 72,20148,,
ImpactGames,games_video,,$250k,USA,Pittsburgh,2004 E Carson St.,15203,40.428407,-79.977337
GameSpot,games_video,,$0,SGP,,,,,
Digital Sports Ventures,games_video,9.0,$0,USA,Overland Park,10851 Mastin Blvd,66210,38.974099,-94.710676
Keyone Productions,games_video,2.0,$0,GBR,Worcester,Keyone Productions,WR4 0DJ,,
Giftologia,games_video,3.0,$0,,,,,,
WhereverTV,games_video,,$150k,USA,Pittsburgh,,15230,40.4409,-79.9963
Panfu,games_video,20.0,$0,DEU,Berlin,WinsstraÃŸe 62/63,10405,52.5283111,13.4120986
Avocado Entertainment,games_video,50.0,$1.5M,KOR,Seoul,,,,
Tharegalu,games_video,5.0,$0,,,,,,
Say Design,games_video,10.0,$0,USA,Aliso Viejo,130 Vantis,92656,33.579204,-117.7293383
AnySource Media,games_video,,$3.2M,USA,Malvern,70 E. Swedesford Road Suite 120,19355,40.054547,-75.515376
Memetales,games_video,,$100k,USA,Bellevue,,98007,,
ToonUps,games_video,10.0,$0,USA,Wayne,11 West Avenue,19087,40.046431,-75.39342
SlideMap,games_video,1.0,$0,,,,,,
Avallon Alliance,games_video,,$0,,,,,,
SCVNGR,games_video,60.0,$40.8M,USA,Boston,One Congress,021114,42.3406534,-71.0680027
Owlient,games_video,40.0,€3M,FRA,Paris,26-28 rue de ChambÃ©ry,75015,48.8308091,2.3032201
TrewCap,games_video,0.0,$18k,,,,,,
goviral,games_video,55.0,$8.82M,GBR,London,10a Belmont St,NW1 8HH,,
Arimaz,games_video,5.0,$400k,CHE,Renens,Av du 24 Janvier 11,1020,46.5389248,6.5877024
Umoo,games_video,20.0,$0,IOT,Tortola,Omar Hodge Building P.O. Box 3163,VG1110,,
OBRA Incorporated,games_video,,$0,,,,,,
Vae Victis,games_video,15.0,$0,ITA,Cesena,"via Emilia Ponente, 1667",47023,44.1480034,12.2091265
highdefnow,games_video,,$0,,,,,,
Z2Live,games_video,130.0,$6.5M,USA,Seattle,1601 2nd Ave,98101,47.6103008,-122.3399782
ZillionTV,games_video,100.0,$18.1M,USA,Sunnyvale,1170 Kifer Road,94086,37.3738725,-121.9973546
preAmped,games_video,3.0,$0,USA,Orlando,2645 Guiana Plum Drive,32828,28.518768,-81.141475
Dormtainment,games_video,,$0,,,,,,
Documentary Films Network,games_video,,$0,,,,,,
Preview Networks,games_video,26.0,$4M,DNK,Copenhagen,Njalsgade 21F,2300,55.6659813,12.5800751
RaaajChat,games_video,4.0,$0,,,,,,
SHOCAS,games_video,1.0,$0,,,,,,
Mediastroika,games_video,3.0,$0,FRA,Paris,42 rue Godefroy Cavaignac,75011,48.8557544,2.3808328
LineTeVe,games_video,5.0,$0,,,,,,
myconcertarchive,games_video,1.0,$0,,,,,,
The Escapist,games_video,30.0,$0,USA,Durham,2530 Meridian Parkway,27713,35.911733,-78.900103
Intruders TV,games_video,,$0,,,,,,
YiqYaq,games_video,2.0,$0,,,,,,
ChangYou,games_video,,$0,CHN,Beijing,"East Tower,Jing Yan Building,",100043,39.9088476,116.1832024
QPoint,games_video,,$0,USA,Redwood City,"1757 E. Bayshore Rd., #21",94063,37.48916,-122.209225
VueFliX,games_video,,$0,,,,,,
SoundClick,games_video,,$0,,,,,,
veedemus,games_video,1.0,$0,,,,,,
Tickets For The Win!,games_video,,$0,,,,,,
Swiffen,games_video,4.0,$0,GBR,London,"114, St. Martins Lane",WC2N4BE,51.5163382,-0.0828173
HBOlab,games_video,,$0,,,,,,
Music Mogul,games_video,,$0,,,,,,
Myfitbrain,games_video,,$0,USA,Glenview,940 Meadowlark Lane,60025,42.072715,-87.828089
Newgrounds,games_video,11.0,$0,,,,,,
AggreGame,games_video,,$0,,,,,,
Moogi,games_video,,$100k,USA,New York,PO Box 520,10013,40.7217861,-74.0094471
SX Entertainment,games_video,3.0,$0,,,,,,
Kongespill,games_video,1.0,$0,,,,,,
Jakun Media,games_video,4.0,$0,DEU,Berlin,SchÃ¶nhauser Allee 113,10439,53.5849353,10.1251434
Two Animators! LLP,games_video,6.0,$0,USA,Hamilton,3812 Quakerbridge Road,08619,40.2651249,-74.674281
Digitally Imported,games_video,7.0,$0,USA,Denver,3457 Ringsby Court,80216,37.447309,-122.158475
MyMusicStream,games_video,1.0,$0,,,,,,
Ffffoundtape,games_video,2.0,$0,,,,,,
Tribal Nova,games_video,,C$3M,CAN,Montreal,"4398, Boul. St-Laurent",H2W 1Z5,45.5194549,-73.5849023
Valkyrie Movie Wikia,games_video,,$0,,,,,,
We Are Hunted,games_video,,$3M,USA,,,,,
Aptocore,games_video,7.0,$0,DNK,Copenhagen,Esromgade 15,2200,55.6975098,12.5401817
ouioui,games_video,0.0,$0,,,,,,
Mancala Time,games_video,,$0,,,,,,
Silvatar Media,games_video,4.0,$0,USA,Los Angeles,1800 N. New Hampshire Ave,90027,34.1036353,-118.293316
Sloshspot,games_video,,$0,USA,San Jose,,,37.320052,-121.877636
DoodleWall,games_video,,$0,,,,,,
Total Live Music,games_video,,$0,,,,,,
Indienink,games_video,2.0,$0,USA,Fort Collins,P.O. Box 273102,80527-3102,40.5854,-105.0839
Serious Parody,games_video,,£1M,GBR,Dundee,,,56.462018,-2.970721
Bokan Technologies,games_video,15.0,$0,CHN,Beijing,"A-1107, Huasheng Yuezhang",100101,,
Gameleaper,games_video,1.0,$0,USA,Dallas,6400 Maple Ave,75235,32.8270045,-96.8432224
SqueeNet,games_video,2.0,$0,,,,,,
ReverbDesk,games_video,1.0,$0,,,,,,
Blogpuzzle,games_video,2.0,$0,,,,,,
Scoreloop,games_video,,$2.8M,DEU,Munich,Landsberger Strasse 110,80339,,
Hayen Company,games_video,1.0,$0,USA,Columbia,1825 Saint Julian Pl.,29204,34.019114,-81.004871
Play Free Online Games,games_video,,$0,,,,,,
Busca Corp,games_video,45.0,$5M,USA,La Jolla,7590 Fay Ave. Suite 506,92037,32.841791,-117.274602
3D Ace Studio,games_video,,$0,,,,,,
NaturalMotion,games_video,150.0,$0,GBR,Oxford,Eagle House,OX2 6ED,,
BIT TV,games_video,10.0,$0,USA,Portland,4701 se 24th st.,97202,45.488419,-122.642156
MovieAB,games_video,1.0,$0,,,,,,
Aspiro,games_video,115.0,$0,SWE,Malmo,Grabrodersgatan 2,SE-21121,,
Campus Jerk,games_video,10.0,$0,,,,,,
Open Studio,games_video,,$0,,,,,,
NewAuto Video Technology,games_video,500.0,$50M,CHN,Hubei,"1501#  2 Entrance Phoenix A Building, 312 Zhongshan Road",300000,,
Mind Taffy Design,games_video,5.0,$0,USA,Santa Barbara,3121 Avena,93436,34.6960023,-120.3934165
WonderHill,games_video,,$7M,,,,,,
MAYN Interactive,games_video,,$0,,,,,,
Linekong,games_video,600.0,$40M,CHN,"Haidian, beijing","Floor10/11, Capital Development Tower",,,
My Text Secret,games_video,2.0,$0,,,,,,
TeeVhe,games_video,,$0,,,,,,
Boolabus,games_video,3.0,$0,,,,,,
BigPark,games_video,,$0,,,,,,
MP3 Obsession,games_video,6.0,$0,,,,,,
Owngig,games_video,8.0,$0,GBR,London,1&2 Barley Shotts,W10 5YG,39.39615,22.76303
PlayScape,games_video,30.0,$15.4M,,,,,,
Omneon,games_video,,$0,USA,Sunnyvale,1237 E. Arques Ave.,94085,,
Hebali,games_video,15.0,$0,,,,,,
"Dance Channel TV, Inc",games_video,5.0,$0,USA,North Hollywood,,91601,34.1658804,-118.3637264
StreamTheWorld,games_video,65.0,$0,CAN,MontrÃ©al,"1440 Ste-Catherine W., Suite 1200",H3G 1R8,45.4961227,-73.5767499
Playfire,games_video,,$2.1M,,,,,,
Thumbslap,games_video,1.0,$0,,,,,,
CinemaKi,games_video,6.0,$0,ARG,,,,,
Playdom,games_video,,$76M,USA,Palo Alto,395 Page Mill Road,94306,37.393536,-122.076747
Flixxy,games_video,,$0,USA,Clearwater,609 North Osceola Avenue,33755,27.972364,-82.800333
Carbonon Tech,games_video,15.0,$0,,,,,,
OOiZiT,games_video,12.0,$0,GBR,Nottingham,Park Lane Business Centre,NG60DW,,
FanBridge,games_video,,$2.35M,USA,New York,150 West 25th Street,10001,,
Lightning Gaming,games_video,,$4M,USA,Boothwyn,106 Chelsea Parkway,19061,39.8728373,-75.4784988
Virgin Play,games_video,,$3.86M,ESP,Madrid,"Paseo de la Castellana, 9-11",28046,40.4273082,-3.6895115
Fail Dogs,games_video,,$0,,,,,,
PSR Productions,games_video,250.0,$0,,,,,,
Saavn,games_video,25.0,$6M,USA,New York,,10016,40.743877,-73.98618
[212]Media,games_video,75.0,$0,USA,New York,72 Madison Avenue,,40.743877,-73.98618
Velvet View,games_video,,$0,USA,Bay Area,,,,
Scratchix,games_video,1.0,$0,,,,,,
Play Diplomacy Online,games_video,1.0,$0,MLT,Mellieha,Tas-Sellum Residence 612,MLH,,
Awesomeless,games_video,4.0,$0,,,,,,
Yoostar,games_video,40.0,$0,USA,New York,,,40.756054,-73.986951
Ecast,games_video,,$30.3M,USA,San Francisco,"49 Geary Street, Mezzanine",94108,,
2 Minutes,games_video,105.0,$1.66M,FRA,Paris,9 rue biscornet,75012,48.8502056,2.3698033
HashCube,games_video,5.0,$0,IND,,JP Nagar Bangalore,,12.910491,77.5857168
Big Huge Games,games_video,,$0,,,,,,
Funji,games_video,,$0,USA,San Francisco,Soma,,,
Gameyola,games_video,,$0,,,,,,
Molecube,games_video,6.0,$0,CAN,Quebec,305 Bld. Charest EST,G1H 3K3,,
Undead Code Studios,games_video,5.0,$0,ESP,Madrid,,28400,40.6367104,-3.9980485
Bioware,games_video,,$0,CAN,Edmonton,"200, 4445 Calgary Trail",T6H 5R7,,
GameGround,games_video,25.0,$11.4M,USA,New York,,,40.756054,-73.986951
Blip,games_video,47.0,$27.3M,USA,New York,636 Broadway,10012,,
ekidnaworld,games_video,10.0,$0,AUS,Queensland,Fortitude Valley,4006,-27.4574861,153.033686
Popcom,games_video,,$0,,,,,,
Roundthird,games_video,3.0,$0,USA,St. Louis,1051 S. Big Bend Blvd.,63117,38.633586,-90.319021
scoyo,games_video,13.0,$0,DEU,Hamburg,GroÃŸer Burstah 50-52,20457,53.5622698,9.9490139
WorldWide Biggies,games_video,,$9M,USA,New York,545 West 45th Street,10036,,
Digital Nasties,games_video,10.0,$0,,,,,,
River Horse,games_video,3.0,$0,GBR,Wollaton (Nottingham),156 Russell Drive,NG8 2BE,52.955042,-1.217092
888 Holdings,games_video,931.0,$0,,,,,,
Chop or Champion,games_video,4.0,$0,,,,,,
MIDI Delight,games_video,1.0,$0,,,,,,
Adena Studios,games_video,,$0,USA,Raleigh-Durham,,,,
Meuzer,games_video,3.0,$0,USA,San Jose,,,37.320052,-121.877636
Two Way TV,games_video,,$0,GBR,London,The Media Centre 19 Bolsover Street,W1W 5NA,,
Mudlark,games_video,12.0,$0,GBR,Birmingham,19 Fazeley Studios,NG10 4LQ,,
Sunlight Digital,games_video,3.0,$0,,,,,,
DooTV limited,games_video,9.0,$0,,,,,,
Trezur,games_video,,$0,IRL,Dublin,,,53.344104,-6.2674937
Sony Online Entertainment,games_video,,$0,,,,,,
EPIX,games_video,,$0,USA,New York,1515 Broadway,10036,,
Sega,games_video,,$0,USA,San Francisco,350 Rhode Island Street,94103,,
Vevo,games_video,,$0,USA,New York,4 Times Square 25th Floor,10036,,
TubeChop,games_video,,$0,,,,,,
Musictoob,games_video,,$0,,,,,,
Sticher,games_video,,$100k,USA,San Francisco,Pier 9,94111,37.8093381,-122.4166061
Forterra Systems,games_video,,$1.2M,USA,San Mateo,"2207 Bridgepointe Parkway, Suite 200",94404,37.561576,-122.284173
BetKlub,games_video,3.0,€91k,FRA,Paris,17 rue EugÃ¨ne Varlin,75010,48.8787606,2.3639174
Tour Volume,games_video,2.0,$0,USA,California,1169 Redwood City,94061,,
Bandstocks,games_video,,$0,GBR,London,17 Shorts Gardens,WC2H 9AT,51.5142132,-0.1261853
uPlaya,games_video,,$0,,,,,,
THiNKmedia,games_video,,$0,,,,,,
Multiso Multimedia Solutions,games_video,1.0,$0,SVN,Celje,Oblakova 7,3000,46.2347396,15.2591055
WineDineTv,games_video,6.0,$0,,,,,,
GameTrailers,games_video,,$0,USA,Santa Monica,2600 Colorado Ave.,90404,,
Bigpoint,games_video,500.0,€420M,DEU,Hamburg,Drehbahn 47-48,20354,53.5973055,9.9762519
Exent,games_video,100.0,$3M,USA,New York,632 W. 28th St.,10001,40.7523796,-74.005568
Keen Software House,games_video,5.0,$0,GBR,London,145-157 St John Street,EC1V 4PY,51.5220763,-0.1153003
Grubby Games,games_video,,$0,,,,,,
Mondo Media,games_video,9.0,$0,USA,San Francisco,550 15TH ST,94103,37.764169,-122.402021
Video Game 911,games_video,7.0,$0,USA,Denville,411 East Main Street,07834,40.878656,-74.4800198
VIVA,games_video,,$40M,CHN,Beijing,"1019 Tower B, ChaoWai SOHO",,,
First Gaming Partners,games_video,,$0,,,,,,
CompuExpert,games_video,,$0,USA,Lake Forest,11 Rancho Circle,92630,33.6734916,-117.6686838
Digital Interactive,games_video,,$0,USA,Long Beach,444 West Ocean Boulevard,90802,33.766701,-118.197677
Gastronaut Studios,games_video,,$0,,,,,,
PopCap Games,games_video,,$22.5M,USA,Seattle,2401 4th Ave,98121,47.6161693,-122.3451897
Snowblind Studios,games_video,,$0,USA,Bothell,19801 North Creek Parkway,98011,47.7705495,-122.1861976
New Toy,games_video,,$0,GBR,London,The Tower Building,SE1 7NX,,
MindFuse,games_video,,$1M,,,,,,
Octopi,games_video,,$0,,,,,,
Bamboo Media Casting,games_video,,$0,USA,New York,847A Second Avenue,10017,,
Ph03nix New Media,games_video,,$1.1M,CAN,"Calgary, Alberta",,,,
SPOTI,games_video,6.0,$0,ESP,,,,,
Gigger,games_video,,$0,,,,,,
Kid Convos,games_video,2.0,$0,,,,,,
FacebookLicious!,games_video,30.0,$0,USA,Bear,"42 Paisley Street,",19701,39.612223,-75.696706
Midway Games,games_video,,$0,USA,Chicago,,,41.879535,-87.624333
The APP Company,games_video,5.0,$0,,,,,,
RepeatSeat,games_video,,$0,CAN,"Calgary, Alberta","6th Floor, 630 - 8th Avenue S.W.",T2P 1G6,,
Sauspiel,games_video,8.0,$0,DEU,Berlin,ReichenbergerstraÃŸe 113a,10999,52.4943074,13.434474
Film Annex,games_video,5.0,$0,USA,New York,,10011,40.7464969,-74.0094471
The WEB Channel Network,games_video,,$0,,,,,,
FremantleMedia Ventures,games_video,,$0,USA,New York,28 East 28th Street,10016,40.7439449,-73.9855424
California 7 Studios,games_video,,$0,USA,Los Angeles,3415 S Sepulveda Blvd,90034,,
Eyetronics,games_video,,$4.72M,BEL,,Kapeldreef 60,,,
Antix Labs,games_video,,$3M,GBR,Berkshire,200 Brook Drive,RG2 6UB,,
MechaWorks,games_video,,$0,USA,Sunnyvale,830 Stewart Dr,94087,37.383444,-122.009405
DJ Nitrogen,games_video,8.0,$0,USA,San Francisco,11 Lupine Avenue,94118,37.7841737,-122.4494082
Shape Games,games_video,,$0,USA,Alexandria,901 North Pitt str.,2231420,38.814208,-77.042423
G5 Entertainment,games_video,107.0,$0,UKR,Kharkov,"Moskovskiy prospekt, 179-B",61037,,
FragBrag,games_video,4.0,$0,,,,,,
Elephant Entertaiment,games_video,,$0,,,,,,
iPartyTV,games_video,,$0,,,,,,
Symposium Productions,games_video,,$0,,,,,,
Rev Media,games_video,,$0,USA,Dallas,,,,
Fictionaut,games_video,2.0,$0,USA,Astoria,32-14 42nd St,11103,40.7597951,-73.9161267
Tiny Speck,games_video,45.0,$17.2M,CAN,Vancouver,163 Hastings St W,BC V6B 1H5,49.2824551,-123.109217
My TV Shows,games_video,2.0,$0,PRT,Lisbon,Rua RosÃ¡lia de Castro,1700,38.7523672,-9.1462209
